full_id,osm_id,osm_type,name:ru,name:en,name,lat,lon
n276645291,"276645291",node,Летнеозерский,Letneozerskiy,Летнеозерский,63.3914463,40.3952700
n279781344,"279781344",node,,,,43.3466000,132.5576885
n283571026,"283571026",node,,,,44.0151683,132.2194834
n285878271,"285878271",node,,,Минусинск,53.7565199,91.6985377
n286928423,"286928423",node,,,,56.6844788,96.1141503
n290263651,"290263651",node,,,Аэродром Барабинск,55.3602804,78.2998922
n300686793,"300686793",node,,,,58.3932107,97.3258911
n301790125,"301790125",node,,,Айхал,65.9579331,111.5442886
n302371684,"302371684",node,Аэропорт Мама,Mama Airport,Аэропорт Мама,58.3137634,112.8908620
n304831926,"304831926",node,,,,67.4601740,33.5804877
n338745593,"338745593",node,,,,59.6193218,150.9173265
n338745820,"338745820",node,,,,59.6223278,150.9154668
n338745829,"338745829",node,,,,59.6229461,150.9180057
n356418445,"356418445",node,,,,67.4913119,63.9600152
n360425777,"360425777",node,,,Пулково КПП-5,59.8035573,30.3130744
n387126165,"387126165",node,Иультин,Iultin,Иультин,67.9098366,-178.6795835
n392987534,"392987534",node,,,,61.8364813,34.3092355
n407626808,"407626808",node,,Yelabuga North,Елабуга (Северный),55.7930795,52.1285755
n407705910,"407705910",node,Аэродром Кырен,Kyren Aerodrome,Аэродром Кырен,51.6777446,102.1583670
n407705919,"407705919",node,,Krapivnya,Крапивня,57.0754843,33.3872050
n407720310,"407720310",node,Нивенское,Nivenskoye,Нивенское,54.5640150,20.6049701
n408501606,"408501606",node,Касимово,Kasimovo,Касимово,60.2031407,30.3337134
n408730997,"408730997",node,,,"Аэродром Славгород ""Южный""",52.9674458,78.6436150
n410380151,"410380151",node,,Nikolsk Airport,Аэропорт Никольск,59.4991329,45.5182495
n410604722,"410604722",node,Аэродром Ветровое,Vetrovoye Air Base (historical),Аэродром Ветровое,45.2547718,148.3117000
n410997741,"410997741",node,Аэродром Мензелинск,Menzelinsk Aerodrome,Аэродром Мензелинск,55.7193216,53.0699782
n411102247,"411102247",node,Вещево,Veshchevo,Вещево,60.6741547,29.1700683
n411859198,"411859198",node,Майсионвара,Maysionvara,Майсионвара,62.2802817,32.4195169
n411928095,"411928095",node,,Taly Ruchey,Талый Ручей,66.8930364,33.8809481
n412049030,"412049030",node,Аэропорт Свободный,Svobodny Airport,Аэропорт Свободный,51.4550285,128.1002637
n412352997,"412352997",node,Аэродром Средний Остров,Sredny Ostrov,Аэродром Средний Остров,79.5202553,91.1466744
n414268419,"414268419",node,,Dno (air base),Дно,57.7901573,29.9712341
n414335793,"414335793",node,,,Борки (Кимры),56.7993118,37.3314435
n414954830,"414954830",node,Аэродром Остров Большевик,Ostrov Bolshevik,Аэродром Остров Большевик,78.5851078,100.9996291
n415004498,"415004498",node,Аэродром Возжаевка,Vozzhayevka,Аэродром Возжаевка,50.7700690,128.7754457
n415004991,"415004991",node,Аэропорт Шимановск,Shimanovsk Airport,Аэропорт Шимановск,51.9866042,127.6518059
n415168767,"415168767",node,Аэродром Леонидово,Leonidovo (air base),Аэродром Леонидово,49.2753771,142.9269167
n415169069,"415169069",node,Аэродром Матросово,Matrosovo,Аэродром Матросово,49.4000909,142.8833759
n415524498,"415524498",node,,,,52.0196646,113.3042706
n415824148,"415824148",node,Аэродром Верхняя Заимка,Verkhnaya Zaimka,"Аэродром Верхняя Заимка, заброшен",55.8250241,110.0997084
n416575424,"416575424",node,Аэродром Хада-Булак,Khada Bulak,Аэродром Хада-Булак,50.6338019,116.3721560
n416575427,"416575427",node,Аэродром Степь,,Аэродром Степь,51.0188650,115.4322074
n416575432,"416575432",node,Аэродром Балей,Baley Airport,Аэродром Балей,51.5603578,116.6999854
n421281112,"421281112",node,Оленья,Olen'ya,Оленья,68.1519207,33.4619109
n421295358,"421295358",node,,,Tilichiki Airport,60.3842975,166.0259975
n431010938,"431010938",node,,,,56.9750131,90.6748219
n449079680,"449079680",node,,,Уш Бельдир,51.4843729,98.0595233
n457066147,"457066147",node,Куммолово,,Куммолово,59.6547005,28.9935518
n462164236,"462164236",node,,,,52.5203227,111.5604011
n463165806,"463165806",node,,Tasayevo Airport,,57.1782579,94.8982070
n474113178,"474113178",node,,,,65.0299934,35.7224001
n507236360,"507236360",node,,,,59.1692012,131.9184108
n528977963,"528977963",node,,,Безымянка (аэродром),53.2241609,50.3293977
n539468037,"539468037",node,,,,56.7516765,60.7963238
n559935902,"559935902",node,,,,56.7506306,60.8153534
n567095372,"567095372",node,,,,45.0476702,39.2127552
n581915598,"581915598",node,,Novodmitriyevskaya Airstrip,,44.8490702,38.8964553
n595761670,"595761670",node,,,,55.8985389,38.0471548
n596375406,"596375406",node,,,Приуральский,62.6134308,57.4702958
n608646673,"608646673",node,,,,53.5273396,50.1622971
n610521549,"610521549",node,,,,55.5929259,37.2912314
n615235437,"615235437",node,,,,55.7578686,38.0570935
n623808919,"623808919",node,,,,56.6989229,60.7790570
n623808920,"623808920",node,,,,56.6987699,60.7770803
n636566677,"636566677",node,,,,56.7513351,60.8169881
n653113238,"653113238",node,,Borovichi,Боровичи,58.4373375,33.8765699
n663237195,"663237195",node,,,,54.9550911,73.3117774
n663544056,"663544056",node,,,,54.9586427,73.3296982
n671688703,"671688703",node,,,,51.8109572,39.2265759
n671821346,"671821346",node,,,,67.4609874,33.5788337
n671821378,"671821378",node,,,,67.4584733,33.5837969
n671821431,"671821431",node,,,,67.4592935,33.5833331
n671821518,"671821518",node,,,,67.4667861,33.5830218
n674932362,"674932362",node,,,,55.0753586,83.0024591
n674932800,"674932800",node,,,,55.1104989,83.0169297
n687638004,"687638004",node,Аэродром Шарыпово,Sharypovo aerodrome,Аэродром Шарыпово,55.4568515,89.1727274
n690537441,"690537441",node,,,скв.111 Верхнечонского месторождения,60.1209450,109.0731447
n691582584,"691582584",node,,,,57.1509740,65.4749473
n695009518,"695009518",node,,,,43.4199737,132.4175427
n711918971,"711918971",node,,"Usman ""Sapsan"" ""Sharshki"" airfield",Усмань (Шаршки),52.0297160,39.6641306
n721881679,"721881679",node,,,,55.0087875,82.6618258
n738084908,"738084908",node,,,,54.5491652,36.3633634
n767081792,"767081792",node,,,,55.8951067,38.0593896
n775349465,"775349465",node,,,Авачинский аэропорт,53.1601472,158.3841278
n810089160,"810089160",node,,,,55.7583417,38.0569234
n818817575,"818817575",node,Манушкино,Manushkino Airfield,Манушкино,59.8720400,30.8032250
n837505456,"837505456",node,Горская,,Горская,60.0333642,30.0153908
n861030673,"861030673",node,,,,55.8683236,49.1410125
n864426831,"864426831",node,,,,54.8825760,38.1565833
n887609077,"887609077",node,,,,53.7525021,91.3995277
n887609737,"887609737",node,,,,51.9698024,85.8444367
n887610188,"887610188",node,,,,53.2419013,50.3611947
n887611034,"887611034",node,,,,54.2702006,48.2397287
n887614647,"887614647",node,,,,62.0882203,129.7500254
n894573631,"894573631",node,,,Агинское,55.2676157,94.8596642
n902848622,"902848622",node,,,,51.8331211,79.7113031
n920223336,"920223336",node,,,,58.1019660,38.9148580
n920784473,"920784473",node,,,,56.2218186,43.7922442
n921169144,"921169144",node,,Shilovo (Krutitsy),Аэродром Крутицы,54.2754298,40.8165800
n923926844,"923926844",node,,,,59.2836899,39.9354902
n935630095,"935630095",node,,,Аэропорт Баргузин,53.5851600,109.7062099
n946931720,"946931720",node,,,,55.0061808,82.6151437
n956517318,"956517318",node,,,Аэропорт Соболево,54.3055967,155.9653311
n961321571,"961321571",node,,,Аэропорт,54.4263883,50.7682971
n964029316,"964029316",node,,,,56.1809213,92.4875438
n964029317,"964029317",node,,,,56.1813070,92.4858967
n999499626,"999499626",node,,,,55.9651836,37.4226804
n1019375243,"1019375243",node,,,,64.8955602,45.7404080
n1019428686,"1019428686",node,,,,67.6443107,53.1266282
n1025668412,"1025668412",node,,,,65.1178445,57.1435548
n1030613114,"1030613114",node,,Birobidzhan Yuzhniy Airfield,Биробиджан (Южный),48.5783412,133.0374309
n1042046682,"1042046682",node,УХЯИ Ича,UHQI Icha,Аэропорт Ича,55.5956080,155.6191580
n1042057021,"1042057021",node,Аэродром Чиндант,Chindant Air Base,Аэродром Чиндант,50.3967018,116.3470001
n1042057077,"1042057077",node,,,Krasnovishersk Airport,60.4105900,57.1368867
n1042057084,"1042057084",node,,,Yamburg Airport,67.9866638,75.0999985
n1042057096,"1042057096",node,Аэродром Калиновская,Kalinovskaya Airfield,Аэродром Калиновская,43.5999985,45.5299988
n1042057133,"1042057133",node,Сиворицы,Sivoritsy,Сиворицы,59.4749985,30.0000000
n1042057139,"1042057139",node,,Kuznetsovo,Кузнецово,59.2459666,29.9424097
n1042057143,"1042057143",node,аэродром Мурманск-Мурмаши,Murmashi Airfield,аэродром Мурманск-Мурмаши,68.8072968,32.8021011
n1042057151,"1042057151",node,,Bolchary Airport,Аэропорт МВЛ Болчары,59.8217672,68.8305309
n1042057153,"1042057153",node,,Verkhnyaya Zolotitsa,Верхняя Золотица,65.6859621,40.3618032
n1042057177,"1042057177",node,Аэропорт Индига,Indiga Airport,Аэропорт Индига,67.6469420,49.0463756
n1042057198,"1042057198",node,Бугуруслан,Buguruslan Glavny Airfield,Бугуруслан,53.6180000,52.4440002
n1042057274,"1042057274",node,Аткарск,Atkarsk Airport,Аткарск,51.8019981,45.1119995
n1042057344,"1042057344",node,,,Klyuchi Airfield,52.2675076,79.2027331
n1042057353,"1042057353",node,,Ishim Airfield,Аэродром Ишим(Южный),56.0896342,69.4585558
n1042057357,"1042057357",node,,,Verkhneimbatsk Airport,63.1567646,87.9710212
n1042057366,"1042057366",node,,Yalutorovsk Airfield,Аэродром Ялуторовск,56.6694816,66.2506286
n1042057375,"1042057375",node,,Borzya Zapadnaya Airfield,,50.3540001,116.2600021
n1042057390,"1042057390",node,Бузулук,Buzuluk Airport,Бузулук,52.8129997,52.2220001
n1042057412,"1042057412",node,Чижа,Chizha Heliport,Чижа,67.0844967,44.3705518
n1042057420,"1042057420",node,,,Витязь Аэро,55.9364385,158.7114294
n1042057428,"1042057428",node,,Gazimurskiy Zavod Airport,,51.5470009,118.3700027
n1042057448,"1042057448",node,,Imeni Poliny Osipenko Airport,имени Полины Осипенко,52.4399986,136.4739990
n1042057466,"1042057466",node,Куркачи,Kurkachi Airfield,Куркачи,55.9799995,49.5810013
n1042057468,"1042057468",node,,Seltso Airfield,Сельцо,59.6175087,29.5426112
n1042057521,"1042057521",node,,Giaginskaya Airfield,,44.8870010,39.9650002
n1042057551,"1042057551",node,,,Юрьевское,56.7789077,36.2828985
n1042057554,"1042057554",node,,Dubna Seaplane Base,"Гидроаэродром ""Дубна""",56.7140675,37.0616050
n1042057568,"1042057568",node,Аэродром Кожин,Kozhin Airfield,Аэродром Кожин,51.1277493,49.6458725
n1042057578,"1042057578",node,,,Solnechniy Airport,60.2621910,137.5120201
n1042057585,"1042057585",node,,,Dzhebariki-Khaya Airport,62.1913329,135.8669420
n1042057591,"1042057591",node,,Shabanovo Airfield,Шабаново,57.7949982,28.2999992
n1042057605,"1042057605",node,,,Койда,66.3779984,42.5579987
n1042057615,"1042057615",node,Сосновка,Sosnovka,Сосновка,66.5039978,40.5779991
n1042057621,"1042057621",node,,Tetrino,,66.0587671,38.2826328
n1042057625,"1042057625",node,,Chavan'ga,Чаваньга,66.1139544,37.7348728
n1042057633,"1042057633",node,,Chapoma Airport,,66.1149979,38.8250008
n1042057654,"1042057654",node,,Vokhma Airport,Вохма,58.9197950,46.7237662
n1042057698,"1042057698",node,,,Аэродром Рыдома,54.2620073,37.2539993
n1042057723,"1042057723",node,Аэродром Ахты,Akhty Airfield,Аэродром Ахты,41.4744544,47.7015209
n1042057734,"1042057734",node,Аэроклуб Медынь,Medyn Airclub,Аэроклуб Медынь,54.9461704,35.8526118
n1042057771,"1042057771",node,,,Никитино,56.8060000,37.6900000
n1042057779,"1042057779",node,Аэродром Кольчугино,Kolchugino Airport,Аэродром Кольчугино,56.2820000,39.4730000
n1042057788,"1042057788",node,,,Аэродром Алферьево,56.0973117,35.8799784
n1042057793,"1042057793",node,,,Аэродром Шувое,55.4590000,39.0370000
n1042057798,"1042057798",node,,Oyok Airfield,Аэродром Оёк,52.5510000,104.4500000
n1042057879,"1042057879",node,,Udskoye Airport,Удское,54.5207198,134.4232652
n1042057962,"1042057962",node,,Rozhdestveno Airfield,Аэродром Рождествено,53.2500000,50.0530000
n1042058082,"1042058082",node,Бурный,Burniy Airfield,Бурный,60.6111236,30.4761518
n1042058090,"1042058090",node,,Bolshoy Lutsk Airstrip,Большой Луцк,59.4127111,28.5786259
n1042058145,"1042058145",node,Аэродром Монино,Monino Airfield,Аэродром Монино,55.8370557,38.1706108
n1042058151,"1042058151",node,,,Аэродром Буденновск (Покойное),44.8582000,44.1829000
n1042058154,"1042058154",node,Аэродром Махачкала-1,Makhachkala-1 Airfield,Аэродром Махачкала-1,43.0127469,47.4371007
n1042058155,"1042058155",node,Аэропорт Хунзах,Khunzakh Airport,Аэропорт Хунзах,42.5703389,46.7290592
n1042058157,"1042058157",node,аэродром Осыпной Бугор,Osypnoy Bugor Airfield,аэродром Осыпной Бугор,46.2871581,48.0611730
n1042058160,"1042058160",node,,,Kuznetsk Airport,53.0980957,46.5904427
n1042058166,"1042058166",node,,Vol'sk Airfield,Аэродром Вольск,52.0297395,47.3258562
n1042058221,"1042058221",node,,Kiyevskoye Airstrip,,45.0605630,37.9666471
n1042058239,"1042058239",node,Аэродром Ольгинская,Olginskaya Airstrip,Аэродром Ольгинская,45.9383478,38.3999097
n1042058244,"1042058244",node,,Medvedovskaya Airstrip,,45.4433769,38.9604592
n1042058249,"1042058249",node,Елизаветинская,Yelizavetinskaya Airstrip,Елизаветинская,45.0852830,38.8053149
n1042058261,"1042058261",node,Белевцы,Belevci,Белевцы,45.2488841,39.0793789
n1042058266,"1042058266",node,Родниковская,Rodnikovskaya Airstrip,Родниковская,44.7776465,40.7087660
n1042058273,"1042058273",node,,Kusino Airfield,Кусино,59.4021564,31.8155479
n1042058282,"1042058282",node,,Yastrebino Airstrip,Ястребино,59.3856163,28.9302421
n1042058285,"1042058285",node,,Glazhevo Airstrip,Глажево,59.6603223,32.1070742
n1042058292,"1042058292",node,,Panino Airfield,Аэродром Панино,54.4755110,40.3165931
n1042058300,"1042058300",node,,,Старица,56.5123435,34.9719715
n1042058321,"1042058321",node,,Kurganinsk Airfield,,44.8642380,40.6251508
n1042058337,"1042058337",node,Аэродром Морозово,Morozovo Airstrip,Аэродром Морозово,55.3806465,38.3715963
n1042058345,"1042058345",node,,,Kamyshin Airport,50.0527943,45.3739876
n1042058362,"1042058362",node,,,Greem Bell Air Base,81.1667023,64.5832977
n1042058469,"1042058469",node,,,Ukkurey Air Base,52.3333015,116.8330002
n1042089933,"1042089933",node,,Ekimchan Airport,Аэропорт Экимчан,53.0744313,132.9502821
n1042089950,"1042089950",node,,Chumikan Airport,Чумикан,54.6961817,135.2824292
n1042089961,"1042089961",node,,,Аэропорт Советская Гавань (Май-Гатка),48.9252275,140.0360657
n1042090010,"1042090010",node,Беринговский,Beringovskiy Airstrip,Беринговский,63.0255136,179.2936001
n1042090054,"1042090054",node,Аэропорт Халактырка,Khalaktyrka Airport,Аэропорт Халактырка,53.0256511,158.7208767
n1042090062,"1042090062",node,,,Ust-Khayryuzovo Airport,57.0999985,156.7350006
n1042090071,"1042090071",node,,,Krasnokamensk Airport,50.0331078,118.0611420
n1042090253,"1042090253",node,,Kargopol,Каргополь,61.5108085,38.9044515
n1042090265,"1042090265",node,,,Pertominsk Airport,64.7905555,38.4228286
n1042090266,"1042090266",node,Аэропорт Нижняя Пёша,Nizhnyaya Pyosha Airport,Аэропорт Нижняя Пёша,66.7511199,47.7336412
n1042090267,"1042090267",node,Лопшеньга,Lopshen'ga Airfield,Лопшеньга,64.9809109,37.6947142
n1042090268,"1042090268",node,Пурнема,Purnema Airfield,Пурнема,64.3854003,37.4412346
n1042090273,"1042090273",node,,,Letnyaya Zolotitsa,64.9551671,36.8230495
n1042090286,"1042090286",node,,,Khorey-Ver Airport,67.4408880,58.0470581
n1042090292,"1042090292",node,,Kharuta Airport,аэропорт Харута,66.8470001,59.5449982
n1042090352,"1042090352",node,,Pudozh Airport,Аэропорт Пудож,61.8229014,36.5768823
n1042090357,"1042090357",node,Аэропорт Калевала,Kalevala,Аэропорт Калевала,65.2097427,31.1339380
n1042090371,"1042090371",node,Сортавала,Sortavala,Сортавала,61.7375766,30.6718332
n1042090377,"1042090377",node,Аэропорт Кичменгский Городок,Kichmengskiy Gorodok Airport,Аэропорт Кичменгский Городок,59.9770012,45.8250008
n1042090493,"1042090493",node,,Kalachinsk Aerodrome,Аэродром Калачинск,55.0212220,74.6073055
n1042090527,"1042090527",node,,Nagurskoye Air Base,аэродром Нагурское,80.7997921,47.4841915
n1042090797,"1042090797",node,,,Kharasavey Airport,71.2346360,66.9114643
n1042090809,"1042090809",node,,Tolka Airport,Аэропорт Толька,63.9899442,82.0497642
n1042090839,"1042090839",node,,,Аэропорт МВЛ Луговой,59.7247184,65.8357716
n1042091372,"1042091372",node,,Chistopol Airport,Чистополь,55.3106983,50.6137079
n1042091401,"1042091401",node,,,Krasny Kut Airport,50.9580002,46.9469986
n1042091427,"1042091427",node,Бугуруслан (Северный),Buguruslan Severny Airport,Бугуруслан (Северный),53.7183990,52.3718987
n1050019408,"1050019408",node,,,,64.8917011,45.7211427
n1059139295,"1059139295",node,,,,56.7010290,47.9086424
n1059894457,"1059894457",node,,,,68.5122920,112.4763026
n1072247712,"1072247712",node,,,Новоселовский аэродром,55.0010133,90.9265738
n1074855124,"1074855124",node,,,,61.3376111,73.4183465
n1080035252,"1080035252",node,,,,44.2537724,133.4165883
n1088751669,"1088751669",node,,,,51.7475863,36.3127906
n1091359923,"1091359923",node,,,,54.1077168,61.5536594
n1105890222,"1105890222",node,,,Аэродром Чистоозёрное,54.6579544,76.5372753
n1108086737,"1108086737",node,,,,51.7538011,36.3104934
n1108089089,"1108089089",node,,,,51.7517295,36.3095945
n1120017255,"1120017255",node,,,,69.7883619,170.6037241
n1122625665,"1122625665",node,,,,59.6051771,30.2738642
n1127967178,"1127967178",node,,,,45.7009901,34.4095478
n1140466527,"1140466527",node,,,,56.0825478,47.3193258
n1149251944,"1149251944",node,,,,47.6957107,40.2768664
n1150261942,"1150261942",node,,,,57.1938141,65.3217217
n1157628946,"1157628946",node,,,,51.7481164,36.2838077
n1163462127,"1163462127",node,,,,56.7091111,47.8998233
n1169456637,"1169456637",node,,,,62.1944561,74.5264623
n1192918251,"1192918251",node,,Razdol'naya,Раздольная,45.4213336,39.5361301
n1197427813,"1197427813",node,,,,54.1470409,45.2229518
n1197428217,"1197428217",node,,,,54.1427732,45.2265013
n1198035722,"1198035722",node,,,,52.2737256,35.2718411
n1201232143,"1201232143",node,,Kovdor,Ковдор,67.5334569,30.6193477
n1206964916,"1206964916",node,,,,61.3382831,73.4061570
n1214927216,"1214927216",node,,,,66.0042618,57.3799261
n1218639934,"1218639934",node,,,,44.5795093,38.0163158
n1222666918,"1222666918",node,,,,48.3090429,46.1748894
n1223943819,"1223943819",node,,Morinskoye,Аэродром Моринское,54.2327979,41.8212573
n1230787423,"1230787423",node,Воскресенка,Voskresenka,Воскресенка,53.0413264,50.0175143
n1232908691,"1232908691",node,,,,53.1630769,158.4454335
n1234716646,"1234716646",node,,,Аэродром Сараи,53.7265380,40.9810425
n1237007190,"1237007190",node,,Ukholovo,Аэродром Ухолово,53.7959244,40.4532253
n1256703256,"1256703256",node,,,,61.8309237,34.3026267
n1256703637,"1256703637",node,,,,61.8313481,34.3035839
n1268745515,"1268745515",node,,,,61.0242918,69.0937846
n1270906256,"1270906256",node,,Troyekurovo,,53.4132734,39.7637871
n1274011719,"1274011719",node,,,,66.5890049,66.5820678
n1279165417,"1279165417",node,,Korablino,Аэродром Кораблино,53.9042548,40.0143426
n1279936189,"1279936189",node,,,,57.1787351,65.3697510
n1282620458,"1282620458",node,,,Аэродром Соболево,54.1785556,40.0369687
n1288795696,"1288795696",node,,,Аэродром Михалково,54.3382691,39.9697366
n1300915314,"1300915314",node,,,,48.3046911,46.1786547
n1313267040,"1313267040",node,,,,56.3585472,101.6665147
n1317199107,"1317199107",node,,,,55.6041905,36.6235709
n1328841455,"1328841455",node,,,Аэродром Бетино,54.7733595,41.4642210
n1331020290,"1331020290",node,,,Гирвас,62.4819617,33.7480492
n1332198326,"1332198326",node,,,Мар-Кюэль,57.4522188,132.5250507
n1333603591,"1333603591",node,,,Чегдомын,51.1374092,132.9327746
n1335119971,"1335119971",node,,,,59.7867059,30.2924953
n1370063270,"1370063270",node,,,,42.8354887,47.6382736
n1411991842,"1411991842",node,,,,55.4140150,37.8947352
n1414026110,"1414026110",node,,,,45.0940210,33.5790401
n1414026120,"1414026120",node,,,,45.1005434,33.5774856
n1418978034,"1418978034",node,,,,64.3837171,-173.2302251
n1438180289,"1438180289",node,,,,48.2899859,46.1999210
n1438972410,"1438972410",node,,,,60.7158910,77.6614546
n1446173309,"1446173309",node,,,Тайшет (не эксплуатируется),55.9088546,97.9945546
n1448584372,"1448584372",node,,,,54.9580182,73.3321448
n1448584433,"1448584433",node,,,,54.9604667,73.3286387
n1460914957,"1460914957",node,Аэродром Ганькино,Gan'kino Airfield,Аэродром Ганькино,54.8704087,39.3805419
n1466816007,"1466816007",node,,Aerograd Mozhaiskiy,аэроград Можайский,55.4994749,36.2129537
n1468383674,"1468383674",node,,,Аэродром Красный Союз,54.1841951,41.0745960
n1468390731,"1468390731",node,,,Аэродром Сапожок,53.9644569,40.6835503
n1468397071,"1468397071",node,,Shatsk,Аэродром Щацк,54.0500198,41.7306563
n1482456229,"1482456229",node,,,,55.5923367,37.2887336
n1482456247,"1482456247",node,,,,55.5923939,37.2889562
n1496178173,"1496178173",node,,,,46.8865059,142.7242091
n1505197049,"1505197049",node,,,,59.7952822,30.3008685
n1508521702,"1508521702",node,,,Мельница,56.6990489,38.8237876
n1521014121,"1521014121",node,,,,53.8016675,86.8596750
n1526233259,"1526233259",node,,,,56.0806979,47.3282880
n1526233327,"1526233327",node,,,,56.0819288,47.3207398
n1526233346,"1526233346",node,,,,56.0820157,47.3207153
n1528929018,"1528929018",node,,,,45.0915735,33.5802021
n1535261069,"1535261069",node,,,,47.2730564,39.6599962
n1540948100,"1540948100",node,,,,60.7832614,46.2611340
n1541334587,"1541334587",node,,,Аэродром,54.3326930,41.5019357
n1554483191,"1554483191",node,,,,67.2360443,54.6520005
n1563377913,"1563377913",node,,,,54.8824210,20.5925362
n1563378037,"1563378037",node,,,,54.8960124,20.5835749
n1598092196,"1598092196",node,,,Ильинский аэродром,56.9597899,39.7824437
n1605029673,"1605029673",node,,,,53.8070841,86.8622554
n1606339883,"1606339883",node,,,,44.7755109,33.5521759
n1608763279,"1608763279",node,,Varzuga,аэродром Варзуга,66.4115873,36.5930913
n1622469893,"1622469893",node,,,Пашшор,66.9733242,54.8552926
n1622469896,"1622469896",node,,,Серчейю-303,67.1430739,54.7626141
n1625008056,"1625008056",node,,,,61.3359090,73.4001745
n1625008058,"1625008058",node,,,,61.3359148,73.3958843
n1630997677,"1630997677",node,,,,61.3396056,73.4072039
n1631221736,"1631221736",node,,,,61.3358974,73.4029775
n1631221746,"1631221746",node,,,,61.3359579,73.4046847
n1631221779,"1631221779",node,,,,61.3363259,73.4057830
n1632576602,"1632576602",node,,,,61.3417010,73.4347267
n1632576618,"1632576618",node,,,,61.3437369,73.3548184
n1632996609,"1632996609",node,,,,55.9640472,37.3815756
n1668101434,"1668101434",node,,,,46.8875818,142.7239746
n1668107140,"1668107140",node,,,,46.8861453,142.7247856
n1685829974,"1685829974",node,,,,69.3888832,86.1778691
n1696572948,"1696572948",node,,,,45.1747054,35.2161773
n1722454060,"1722454060",node,,,,62.0826628,129.7465022
n1738216466,"1738216466",node,,,,66.4131964,112.0226276
n1744679918,"1744679918",node,,,,55.2987120,61.5331887
n1748281027,"1748281027",node,,,,55.9835220,37.4384505
n1749475089,"1749475089",node,,,,61.0240248,69.0933017
n1788488157,"1788488157",node,,,,55.5032210,37.5182800
n1793521394,"1793521394",node,,,,56.2147285,43.8006046
n1793521774,"1793521774",node,,,,56.2168129,43.7993896
n1793522530,"1793522530",node,,,,56.2203239,43.7915990
n1795476798,"1795476798",node,,,Полиция в Аэропорту,53.3906978,58.7614477
n1795476809,"1795476809",node,,,почтовое отделение №33,53.3909709,58.7615803
n1796840340,"1796840340",node,,,,45.0987522,33.5788132
n1812274623,"1812274623",node,,,,54.5599041,36.3655701
n1846140735,"1846140735",node,,,,60.9484063,76.4957197
n1846141410,"1846141410",node,,,,60.9521122,76.4997996
n1855255596,"1855255596",node,,,,57.7897277,28.4060664
n1855255603,"1855255603",node,,,,57.7902285,28.4049402
n1861778895,"1861778895",node,,,,59.6974174,30.3601169
n1861778923,"1861778923",node,,,,59.6986297,30.3619826
n1861797083,"1861797083",node,,,,59.6886224,30.3551329
n1886853581,"1886853581",node,,,,57.9982486,38.8501260
n1889358894,"1889358894",node,,,,53.3907834,58.7616036
n1889358895,"1889358895",node,,,,53.3908753,58.7616457
n1892722205,"1892722205",node,,,,57.9210496,56.0162969
n1914923200,"1914923200",node,,,,53.9617161,105.9061205
n1939502567,"1939502567",node,,,,63.2959271,118.3563398
n1947443997,"1947443997",node,,,,55.9652002,37.4227649
n1954917750,"1954917750",node,,,,55.5952802,37.2399174
n1956487243,"1956487243",node,,,,55.6091505,37.2819229
n1957935860,"1957935860",node,,,,55.5962262,37.2414455
n1961022953,"1961022953",node,,,,54.5449388,36.3656879
n1961022984,"1961022984",node,,,,54.5453507,36.3666793
n1961023023,"1961023023",node,,,,54.5455683,36.3671018
n1961023029,"1961023029",node,,,,54.5455810,36.3671297
n1971376096,"1971376096",node,,,,56.4457839,131.6720442
n1975852835,"1975852835",node,,,,44.1483662,133.2696944
n1984434196,"1984434196",node,,,,55.4271437,37.8778834
n1984434270,"1984434270",node,,,,55.4294901,37.8626398
n1994400005,"1994400005",node,,Gavrilovskoye,Аэродром Гавриловское,54.4354938,41.8326374
n2008725275,"2008725275",node,,,,60.0921483,30.1782300
n2008725311,"2008725311",node,,,,60.0926044,30.1833872
n2008725329,"2008725329",node,,,,60.0929512,30.1835912
n2008725354,"2008725354",node,,,,60.0932163,30.1921598
n2036049356,"2036049356",node,,,,55.9795439,37.3979117
n2041975290,"2041975290",node,,,Герасимовка,58.6003599,71.9074945
n2044099690,"2044099690",node,,,Ныроб,60.7392831,56.6962375
n2051031583,"2051031583",node,,,,55.9589434,93.0084587
n2052369211,"2052369211",node,,,,53.2126110,34.1839821
n2052369279,"2052369279",node,,,,53.2137410,34.1827730
n2057252640,"2057252640",node,,,,64.5950156,40.7088384
n2057272718,"2057272718",node,,,,64.5955166,40.6974097
n2058770522,"2058770522",node,,,,67.4355267,86.6203224
n2066282290,"2066282290",node,,Maslenka,,56.1925347,40.3155193
n2066282584,"2066282584",node,,,Аэродром Вышеславское,56.3681201,40.2666351
n2086906287,"2086906287",node,,Nebyloye Airfield,Аэродром Небылое,56.4017200,39.9586183
n2086909337,"2086909337",node,,Yur'yev-Pol'skiy,,56.4890744,39.7401254
n2102076290,"2102076290",node,,,,59.2837844,39.9346171
n2124737590,"2124737590",node,,,,61.3382832,73.4059978
n2126664024,"2126664024",node,,,,60.1186230,64.8243834
n2135879203,"2135879203",node,Аэродром Балтаси,Baltasi aerodrome,Аэродром Балтаси,56.3705819,50.2115315
n2137528122,"2137528122",node,,,,63.6983993,66.6949118
n2144918942,"2144918942",node,,Sukhovka,Суховка,56.0506239,40.7586105
n2144919031,"2144919031",node,,Paustovo,Паустово,56.1352733,42.1731307
n2144919034,"2144919034",node,,Gorohovets Airstrip,,56.1810002,42.6681407
n2144919064,"2144919064",node,,Vyazniki North,,56.2001831,42.1891496
n2144919316,"2144919316",node,,Dobrograd Airfield,Аэродром Доброград,56.2385733,41.2394281
n2144919702,"2144919702",node,,,Аэродром Крапивье,56.3973299,40.3366921
n2144919718,"2144919718",node,,Kamenovo,Каменово,56.4094186,40.9778260
n2144919730,"2144919730",node,,Kovrov,,56.4582672,41.2929096
n2151426012,"2151426012",node,,,,60.1167388,64.8229233
n2151433278,"2151433278",node,,,,60.1202109,64.8250047
n2152798613,"2152798613",node,,,,60.1242029,64.8313392
n2160481964,"2160481964",node,,,,63.6969948,66.6927527
n2161392926,"2161392926",node,,,,63.6807804,66.7043598
n2166567336,"2166567336",node,,,,60.0937962,64.8189869
n2178317188,"2178317188",node,,,,43.4414617,39.9224376
n2180360897,"2180360897",node,,,,43.4402898,39.9211534
n2195687818,"2195687818",node,,,,52.3806968,140.4462636
n2200286475,"2200286475",node,,,,43.4357104,39.9301467
n2246496754,"2246496754",node,,,,60.7268686,47.5815931
n2252557978,"2252557978",node,,,,55.4169912,37.8900835
n2252698945,"2252698945",node,,,,55.4240146,37.8816044
n2252698946,"2252698946",node,,,,55.4240645,37.8815380
n2268854036,"2268854036",node,,,,55.5935598,49.3099987
n2271330604,"2271330604",node,,,,56.7504126,60.8150353
n2279062052,"2279062052",node,,,,55.5889119,37.2748598
n2279062057,"2279062057",node,,,,55.5889801,37.2751421
n2279062146,"2279062146",node,,,,55.5917766,37.2864577
n2279062156,"2279062156",node,,,,55.5937151,37.2938284
n2279821442,"2279821442",node,,,,44.2127633,43.0967167
n2279821600,"2279821600",node,,,,44.2153471,43.0902884
n2279821672,"2279821672",node,,,,44.2158446,43.0802777
n2280603000,"2280603000",node,,,,55.9704897,37.4435668
n2280603008,"2280603008",node,,,,55.9705528,37.4437203
n2283929584,"2283929584",node,,,,45.6934226,34.3990077
n2283929730,"2283929730",node,,,,45.6880299,34.4041936
n2284047148,"2284047148",node,,,,55.6114456,37.2709928
n2285627187,"2285627187",node,,,,55.6095721,37.2665461
n2285627194,"2285627194",node,,,,55.6105661,37.2692190
n2287935494,"2287935494",node,,,,54.5727586,55.8748998
n2287935947,"2287935947",node,,,,54.5758836,55.8487839
n2287936042,"2287936042",node,,,,54.5514364,55.9013155
n2288356480,"2288356480",node,,,,55.6074883,49.3015724
n2288356484,"2288356484",node,,,,55.6078572,49.3006317
n2290295203,"2290295203",node,,,,56.1184024,40.3136190
n2292271789,"2292271789",node,,,,50.2624677,85.7102010
n2299607151,"2299607151",node,,,Пара-Дельтадром Солоновка,51.9736480,84.5913787
n2311700815,"2311700815",node,,Troyitskaya,,45.1046255,38.1114341
n2331625426,"2331625426",node,,Gavrilov Posad,,56.5797552,40.0725262
n2331865001,"2331865001",node,,,,54.3533580,41.9726609
n2331865008,"2331865008",node,,,,54.3537777,41.9723179
n2345288024,"2345288024",node,,,,56.0849512,47.3165307
n2345296869,"2345296869",node,,,,56.0885192,47.3274185
n2345298852,"2345298852",node,,,,56.0831489,47.3184673
n2345458157,"2345458157",node,,Trotsa,,56.6998380,43.1902707
n2351260996,"2351260996",node,Аэродром Весь,Suzdal Airport,Аэродром Весь,56.4916401,40.3821003
n2352152394,"2352152394",node,,Marochkovo,,55.9068510,39.2346370
n2373276684,"2373276684",node,,Munoch',,55.1956779,40.3372953
n2377532640,"2377532640",node,,,,63.5683215,126.5109595
n2381172411,"2381172411",node,,,,55.5653130,52.1102772
n2381172520,"2381172520",node,,,,55.5666639,52.1080307
n2384682147,"2384682147",node,,,,52.8403749,91.4034567
n2386611389,"2386611389",node,,,,53.1180311,45.0223492
n2386611455,"2386611455",node,,,,53.1183848,45.0229720
n2387121813,"2387121813",node,,,,45.4165343,42.6818569
n2387613410,"2387613410",node,,Ipatovo,Ипатово,45.7034137,42.8860951
n2389437136,"2389437136",node,,,,56.2510181,40.5827874
n2389449698,"2389449698",node,,,,45.0167837,35.2068484
n2389449717,"2389449717",node,,,,45.0200794,35.2023115
n2408232632,"2408232632",node,,,,54.2897566,48.2346551
n2418115069,"2418115069",node,,,,59.8049020,30.2205453
n2423747629,"2423747629",node,,,,55.5509281,38.1428134
n2429450685,"2429450685",node,,,,56.1241567,40.3182831
n2429450775,"2429450775",node,,,,56.1246247,40.3192153
n2429450777,"2429450777",node,,,,56.1246470,40.3229689
n2436345105,"2436345105",node,,,,53.1679525,158.4269385
n2436345336,"2436345336",node,,,,53.1696864,158.4251496
n2436345339,"2436345339",node,,,,53.1724210,158.4230405
n2443292540,"2443292540",node,,,,54.8559094,60.0006434
n2445603071,"2445603071",node,,,,55.4900993,65.4250416
n2453946779,"2453946779",node,,,Гурлево,59.4772487,28.8966609
n2486482090,"2486482090",node,,Romanovo Airstrip,,56.6676158,39.2424293
n2487673124,"2487673124",node,,,,50.4020418,136.9283342
n2487912093,"2487912093",node,,Prokof''yevo,,56.4029222,39.0673340
n2489039888,"2489039888",node,,Tukchi,Тукчи,57.3584844,139.4993357
n2502417665,"2502417665",node,,,,53.5147965,50.1621906
n2507151687,"2507151687",node,,,Аэродром Бронницы,55.4217015,38.2292316
n2507163909,"2507163909",node,,Lystsevo,Аэродром Лысцево,55.2703820,38.4273824
n2507179265,"2507179265",node,,,Аэродром Сергиевское,55.1020964,38.8730859
n2507222534,"2507222534",node,,,Аэродром Ильясово,54.9278897,38.8118162
n2512577245,"2512577245",node,,,,56.0825442,47.3192900
n2514100501,"2514100501",node,,,,55.2987818,61.5360693
n2515910304,"2515910304",node,,,,60.7207854,114.8232507
n2521861722,"2521861722",node,,,Батюшково,56.2354397,37.5544303
n2521888994,"2521888994",node,,Pricep,Аэродром Прицеп,55.0983948,38.0003395
n2521890226,"2521890226",node,,Torbeyevo,Торбеево,55.0663459,37.8834440
n2521921506,"2521921506",node,,,Аэродром Заячья Поляна,55.0736316,38.2638348
n2521925145,"2521925145",node,,,Аэродром Паново,55.0825986,38.6328210
n2521926775,"2521926775",node,,,Аэродром Биорки,55.0330643,38.5746814
n2521932603,"2521932603",node,,,Аэродром Бор,54.9075694,36.9869542
n2521963579,"2521963579",node,,,Аэродром Венев,54.3798762,38.2391585
n2527943487,"2527943487",node,,,Пулково КПП-2,59.7993672,30.2826509
n2530653741,"2530653741",node,,,,61.0258404,69.0951542
n2530653813,"2530653813",node,,,,61.0264963,69.0978263
n2556597092,"2556597092",node,,,,43.3180629,45.0134000
n2574120375,"2574120375",node,,Koverskoye,Аэродром Коверское,55.0386157,41.5861684
n2574123423,"2574123423",node,,Neklyudovo,,55.7500978,41.5558776
n2578020717,"2578020717",node,,,,48.2955833,46.1862289
n2578020756,"2578020756",node,,,,48.2983278,46.1804828
n2587423990,"2587423990",node,,,,60.3653436,134.4488180
n2609030332,"2609030332",node,,,,57.0294920,34.2309300
n2618449930,"2618449930",node,,,,65.7950982,87.9300078
n2641351575,"2641351575",node,,,Вишнёвка,55.7636994,49.3149206
n2651233960,"2651233960",node,,Gorlovo Airstrip,,53.8325372,39.1008606
n2651234392,"2651234392",node,,,Аэродром Грязное,54.0274106,39.1050088
n2653605570,"2653605570",node,,,Аэропорт Нижнеудинск,54.8950006,99.0640802
n2655717068,"2655717068",node,,,,63.9266115,65.0483886
n2655842597,"2655842597",node,,,Аэропорт МВЛ Лярьяк,61.1060687,80.2481352
n2657174829,"2657174829",node,,Bondari,,52.9575154,42.1171610
n2657175920,"2657175920",node,,Bol'shoye Sheremet'yevo,,53.1019257,42.2649994
n2687965184,"2687965184",node,,,Аэропорт МВЛ Няксимволь,62.4228137,60.8443302
n2694841468,"2694841468",node,,,,56.1809561,92.4837788
n2702339490,"2702339490",node,,,,61.3401184,73.4076933
n2702339492,"2702339492",node,,,,61.3401222,73.4083948
n2702339495,"2702339495",node,,,,61.3401264,73.4091701
n2702339498,"2702339498",node,,,,61.3401304,73.4099188
n2702339500,"2702339500",node,,,,61.3401238,73.4107237
n2712083769,"2712083769",node,,,,43.2007997,44.6041386
n2733549192,"2733549192",node,,,,45.0380027,33.9888918
n2801493170,"2801493170",node,,,,66.0026486,57.3765728
n2812941591,"2812941591",node,,,,54.2880735,48.2332234
n2824076403,"2824076403",node,Аэродром Чкаловский,Chkalovskiy Airfield,Аэродром Чкаловский,45.0731796,35.2034703
n2859228764,"2859228764",node,,,,51.8654895,47.7417012
n2859228780,"2859228780",node,,,,51.8668360,47.7431535
n2859228983,"2859228983",node,,,,51.8648321,47.7408103
n2882944772,"2882944772",node,,,,58.4952067,49.3444509
n2882944794,"2882944794",node,,,,58.4969227,49.3462154
n2916113007,"2916113007",node,,,,52.9336369,36.0217305
n2917585035,"2917585035",node,,,,56.1129177,35.4503849
n2920108219,"2920108219",node,,,Крючково,57.0672048,35.5107501
n2925702718,"2925702718",node,,,,52.6576075,35.8351939
n2927240055,"2927240055",node,,,,55.0144901,82.6961736
n2927244425,"2927244425",node,,,,55.0157324,82.6951251
n2955872010,"2955872010",node,,,Аэродром Лыткино,54.7537261,37.0404394
n3004075413,"3004075413",node,,,аэродром Харанцы,53.2187193,107.4094305
n3027009533,"3027009533",node,,,,57.5543553,40.1464999
n3027416347,"3027416347",node,,,,55.5664042,37.9953472
n3062429308,"3062429308",node,,,,59.8101612,30.2977099
n3064566170,"3064566170",node,,,Пулково КПП-16,59.7993184,30.2712430
n3075459141,"3075459141",node,,,,45.1128875,42.1053878
n3075459144,"3075459144",node,,,,45.1129305,42.1056080
n3075459733,"3075459733",node,,,,45.1124921,42.1042639
n3095629223,"3095629223",node,Прибытие,Arrivals,Прибытие,59.7993269,30.2727445
n3095629224,"3095629224",node,Прибытие,Arrivals,Прибытие,59.7996239,30.2729182
n3095629225,"3095629225",node,Прибытие,Arrivals,Прибытие,59.7997812,30.2730118
n3095629226,"3095629226",node,Прибытие,Arrivals,Прибытие,59.8000903,30.2731925
n3104928260,"3104928260",node,,,,61.3353951,63.5917168
n3129798563,"3129798563",node,,,,51.7909357,55.4505837
n3134194824,"3134194824",node,,,,57.5630398,45.8971990
n3137442306,"3137442306",node,,,Ашево,57.0934603,29.7212392
n3137710690,"3137710690",node,,Manturovo,,58.3657616,44.7985236
n3143490646,"3143490646",node,,Filisovo,Филисово,56.5385565,38.0768924
n3145179546,"3145179546",node,,Slobodka,Слободка,56.2767012,38.9247866
n3159324658,"3159324658",node,,Turovo,Турово,54.8759401,37.8467648
n3165065525,"3165065525",node,,,,55.5033033,37.5185385
n3165077308,"3165077308",node,,,,55.5056841,37.5231530
n3165077764,"3165077764",node,,,,55.5083710,37.5283715
n3183814774,"3183814774",node,,Sulak,,52.6399307,42.9873915
n3187959411,"3187959411",node,,Balashov (Repnoye),Балашов (Репное),51.6283461,43.1513526
n3206229280,"3206229280",node,,Knyazhenskiy,,49.9459902,42.9855148
n3221732760,"3221732760",node,,,,62.2004937,74.5291230
n3221732832,"3221732832",node,,,,62.1963678,74.5300457
n3224554874,"3224554874",node,,Aviator-3,,55.3304911,39.3391353
n3295451275,"3295451275",node,,,,55.6174369,49.2732689
n3295454297,"3295454297",node,,,,55.6090684,49.2964359
n3295454358,"3295454358",node,,,,55.6158385,49.2777829
n3296539159,"3296539159",node,,,,45.1189762,42.1119163
n3300271510,"3300271510",node,,,,45.1119444,42.0936028
n3302358806,"3302358806",node,,,,51.8045665,107.4423288
n3302973167,"3302973167",node,,,Закаменск,50.4323598,103.3681937
n3314804389,"3314804389",node,,,,63.9203023,65.0149092
n3353470144,"3353470144",node,,,,54.8219457,32.0509225
n3353470166,"3353470166",node,,,,54.8221653,32.0509222
n3370383578,"3370383578",node,,,Пулково КПП-3,59.8102924,30.3004966
n3371396328,"3371396328",node,,,,61.3464129,73.4213982
n3376166504,"3376166504",node,,,,59.7992694,30.2708379
n3376479328,"3376479328",node,,,,46.2875474,47.9989175
n3376479597,"3376479597",node,,,,46.2880559,48.0012008
n3381412322,"3381412322",node,,,,52.2729689,104.3536404
n3381412323,"3381412323",node,,,,52.2729427,104.3528223
n3381415644,"3381415644",node,,,,52.2732135,104.3557486
n3389928101,"3389928101",node,,,,46.6825032,38.2506193
n3390927717,"3390927717",node,,,,52.1517574,46.9618544
n3390927936,"3390927936",node,,,,52.1531348,46.9538716
n3391206833,"3391206833",node,,,,52.1519057,46.9603600
n3396667301,"3396667301",node,,,,46.8980131,142.7212516
n3404955059,"3404955059",node,,,,46.6798985,38.2506877
n3459308368,"3459308368",node,,Prosandeyevka,Аэродром Просандеевка,54.1494220,41.6740930
n3487337969,"3487337969",node,,,,51.8051903,39.2469059
n3509023868,"3509023868",node,,,,51.7508836,36.3087690
n3509646389,"3509646389",node,,,Аэродром Назарьево,53.7712965,41.2337499
n3510163411,"3510163411",node,,,Шарик,53.9012975,42.1082139
n3510282476,"3510282476",node,,,Аэродром Елатьма,54.9588664,41.7290745
n3510294802,"3510294802",node,,,Аэродром Ермишь,54.7700488,42.2060172
n3510311622,"3510311622",node,,,Аэродром Захарово,54.3390978,39.2712508
n3510323554,"3510323554",node,,,Аэродром Кадом,54.5406552,42.4580148
n3510369869,"3510369869",node,,Lesnaya Piolyana,Аэродром Лесная Поляна,53.8781485,41.6502836
n3510394191,"3510394191",node,,Mikhaylov,Аэродром Михайлов,54.1965038,38.9830760
n3512156617,"3512156617",node,,Zhitovo,Аэродром Житово,54.6961084,39.3837341
n3532682158,"3532682158",node,,Dalnerechensk,Дальнереченск,45.8798982,133.7307691
n3650018733,"3650018733",node,,,,52.0202766,113.3080506
n3650018877,"3650018877",node,,,,52.0225513,113.2918967
n3665600506,"3665600506",node,,,,55.0232045,45.3237092
n3677302517,"3677302517",node,,,,55.6073312,49.3019561
n3687910632,"3687910632",node,Сонино,Sonino,Сонино,54.6316197,37.3675538
n3698770167,"3698770167",node,,,,59.4140553,143.0661930
n3707042441,"3707042441",node,,Tsepelovo,,55.8985585,39.8591721
n3717385289,"3717385289",node,,,,60.0869805,30.2112408
n3740127665,"3740127665",node,,Nagurskoye,Нагурское,80.7974064,47.5659755
n3743054586,"3743054586",node,,,,55.6097600,49.2946430
n3750503960,"3750503960",node,,,Юръяха,66.7215531,54.9964676
n3758458231,"3758458231",node,,,,55.9833307,37.4415109
n3758458240,"3758458240",node,,,,55.9831424,37.4430893
n3771243019,"3771243019",node,,,Khokhlatskaya-1,48.6196065,135.1220418
n3773145539,"3773145539",node,,,,54.7868710,37.6436396
n3784942728,"3784942728",node,,,Серчейю-308,67.1335586,54.7824097
n3787478579,"3787478579",node,,,,43.1997270,44.6049887
n3787478980,"3787478980",node,,,,43.2008308,44.6040304
n3793717694,"3793717694",node,,,,58.6076834,125.4069391
n3799045116,"3799045116",node,,,,54.6551908,39.5895059
n3799049261,"3799049261",node,,,,54.6512204,39.5955348
n3799078186,"3799078186",node,,,,52.4790184,85.3551259
n3800337592,"3800337592",node,,,,43.9503055,42.6245658
n3807818133,"3807818133",node,,,Аэропорт МВЛ Юильск,63.6766102,69.6430629
n3809882557,"3809882557",node,,,,54.2896724,48.2345727
n3815892383,"3815892383",node,,,Аэродром Кемерово-Боровой,55.4539099,85.9699072
n3829738486,"3829738486",node,,,Аэропорт МВЛ Казым,63.6938949,67.2406119
n3836817545,"3836817545",node,,,,53.2598449,158.2150291
n3836854034,"3836854034",node,,,,54.2639315,48.2365054
n3865100283,"3865100283",node,,,,66.0031525,57.3759565
n3891823893,"3891823893",node,,,Аэропорт Верхняя Гутара,54.2037169,96.9609829
n3900272520,"3900272520",node,,,Аэропорт МВЛ Помут,63.5480340,68.5265844
n3906230860,"3906230860",node,,,,55.0775006,72.9950739
n3906230865,"3906230865",node,,,,55.0776611,72.9949154
n3977923547,"3977923547",node,,,,54.2735023,48.2425206
n3978123078,"3978123078",node,,,ЦГМС,53.1183854,45.0231551
n3988535623,"3988535623",node,,,Аэропорт МВЛ Нумто,63.5043670,71.3627408
n3999113446,"3999113446",node,,,,54.2891126,48.2343415
n4006205771,"4006205771",node,,,,51.6259530,39.1616041
n4036100792,"4036100792",node,,,,51.6598362,39.2675627
n4071630748,"4071630748",node,,,,61.1053008,72.6450607
n4071630749,"4071630749",node,,,,61.1060325,72.6441960
n4072169358,"4072169358",node,,,Аэропорт МВЛ Ваховск,60.9526911,78.7660278
n4105137031,"4105137031",node,,,"КПП Аэропорт ""Казань""",55.6143972,49.2814217
n4116325091,"4116325091",node,,,,61.1043634,72.6459775
n4128411386,"4128411386",node,,,,57.5622438,40.1696460
n4128411387,"4128411387",node,,,,57.5622481,40.1702401
n4128413191,"4128413191",node,,,,57.5629692,40.1755147
n4147500476,"4147500476",node,,Khatenki,Хатенки,54.1215173,35.7333974
n4173486434,"4173486434",node,,,,48.2946279,46.1884743
n4174273443,"4174273443",node,,,,48.7920871,44.3195682
n4174274063,"4174274063",node,,,,48.7932154,44.3426496
n4190047408,"4190047408",node,,,,48.5377501,135.1887223
n4194913133,"4194913133",node,,,,44.2224756,43.1095275
n4197703685,"4197703685",node,,,,44.2251354,43.1035541
n4246176090,"4246176090",node,,,,46.7002312,38.2399989
n4284803702,"4284803702",node,,,Аэропорт МВЛ Сосновый Бор,61.6039526,80.9444656
n4285660226,"4285660226",node,,,Аэропорт МВЛ Корлики,61.5370467,82.4129165
n4294377007,"4294377007",node,,,,53.3585150,83.5347538
n4300546098,"4300546098",node,,,,55.0576157,82.5940508
n4302503305,"4302503305",node,,Kalinayevo,Калинаево,54.5889568,37.8461332
n4304285716,"4304285716",node,,,,53.3554719,83.5535789
n4304286027,"4304286027",node,,,,53.3704308,83.5584360
n4315876683,"4315876683",node,,,,48.2895661,46.2139706
n4324784358,"4324784358",node,,,,53.3611411,83.5476551
n4324784359,"4324784359",node,,,,53.3615247,83.5490427
n4326877639,"4326877639",node,,,Zyryanka West Airport,65.7304038,150.6976842
n4338375277,"4338375277",node,,,,55.6040828,37.2907345
n4361492292,"4361492292",node,Аэродром Спасское,,Аэродром Спасское,54.4221539,52.9173528
n4376721431,"4376721431",node,,,,57.8653938,61.7475442
n4378882291,"4378882291",node,,,,51.9698882,85.8440092
n4403795286,"4403795286",node,,,,62.0958714,129.5541666
n4403796072,"4403796072",node,,,,62.1052215,129.5380488
n4436546853,"4436546853",node,,,,52.9555557,41.4632913
n4457504480,"4457504480",node,,,Аэропорт МВЛ Малоюганский,60.6526793,73.8008056
n4459061243,"4459061243",node,,Sorokino,Сорокино,57.7253404,28.2371135
n4472101973,"4472101973",node,,,,51.8088337,107.4628651
n4541589478,"4541589478",node,,,,54.2867743,48.2336248
n4541589483,"4541589483",node,,,,54.2877361,48.2329231
n4541589485,"4541589485",node,,,,54.2875250,48.2322711
n4541589824,"4541589824",node,,,,54.2869301,48.2324335
n4543633229,"4543633229",node,,,,59.7907612,30.2948065
n4588779324,"4588779324",node,,,,60.9512073,76.4953702
n4588779334,"4588779334",node,,,,60.9518963,76.4958102
n4604700633,"4604700633",node,,,Аэропорт МВЛ Саранпауль,64.2529829,60.9230831
n4620254297,"4620254297",node,,,,54.5650912,55.8843840
n4620254298,"4620254298",node,,,,54.5647341,55.8847177
n4622449909,"4622449909",node,,,,44.2123461,43.0980363
n4673447101,"4673447101",node,,,,67.7905125,130.3990721
n4674935644,"4674935644",node,,,,67.7935557,130.3948897
n4714395078,"4714395078",node,,,,44.1491435,133.2631956
n4721897839,"4721897839",node,,,,54.2875181,48.2500681
n4726202992,"4726202992",node,,,,57.9833222,55.7167148
n4730056122,"4730056122",node,,,КПП №5,55.6251947,36.6691855
n4744709625,"4744709625",node,,,,46.6959528,38.2526595
n4750298131,"4750298131",node,,,,45.2600496,147.9540933
n4750298149,"4750298149",node,,,,45.2594746,147.9557005
n4771607789,"4771607789",node,,,Сосновка,53.6387195,87.1535030
n4771697948,"4771697948",node,,,Аэродром Татарск,55.1980662,75.8721556
n4771709554,"4771709554",node,,,Аэродром Пихтовка,55.9759122,82.7124748
n4854153987,"4854153987",node,,,,62.1069307,129.5380294
n4870384026,"4870384026",node,,,,57.9000214,56.2341774
n4906782244,"4906782244",node,,,,62.0824180,129.7464728
n4907273393,"4907273393",node,,,,60.3973701,120.4639574
n4907273404,"4907273404",node,,,,60.3978133,120.4734692
n4913275025,"4913275025",node,,,,51.8010664,107.4573822
n4920734600,"4920734600",node,УХЯО Озёрная,UHQO Ozernaya,Аэропорт Озерная,51.4990870,156.5441280
n4922144089,"4922144089",node,,,,64.5953284,40.7012673
n4928007623,"4928007623",node,,,,54.9578355,73.3168962
n4930685405,"4930685405",node,,,,55.6150002,49.2751187
n4931189421,"4931189421",node,Аэродром Щекино,Airfield Shchekino,Аэродром Щекино,56.1342123,36.7119319
n4932480388,"4932480388",node,,,,54.2862071,48.2343896
n4954729138,"4954729138",node,,,,59.8686502,111.0376235
n4984188546,"4984188546",node,,Platnirovskaya,,45.3602536,39.3816915
n5026668532,"5026668532",node,,Oktyabrskiy,,61.0793009,43.1986459
n5029939766,"5029939766",node,,Vyazniki,,56.2133227,42.2631328
n5030440053,"5030440053",node,,Babiche-Korenovskiy,,45.5287405,39.3302824
n5033800948,"5033800948",node,,Yuromka,,55.7414302,41.5298291
n5043036885,"5043036885",node,Хламово,Khlamovo,Хламово,54.5392625,31.8080237
n5045784834,"5045784834",node,,Koltunovskiy,,44.1911769,43.8061721
n5045787281,"5045787281",node,Елизарьево,Yelizar'yevo,Елизарьево,55.0733925,43.3362518
n5045790094,"5045790094",node,,Dzhereliyev,,45.4390290,38.3281919
n5045794040,"5045794040",node,Чебургольская,Cheburgolskaya,Чебургольская,45.5482492,38.1030368
n5059764811,"5059764811",node,,Soyana,,65.7835303,43.3825455
n5065584519,"5065584519",node,,Lebedi,,45.6337596,38.3508158
n5065588410,"5065588410",node,,Ladozhskaya,,45.3603869,39.9556641
n5071915152,"5071915152",node,,Mingrelskaya,Мингрельская,45.0324451,38.3884188
n5071918206,"5071918206",node,,Mikhaylovskoye,Михайловское,45.0018338,38.5239640
n5071927227,"5071927227",node,,Krasniy Gorodok,Красноармейский Городок,45.5046008,38.1376931
n5072686334,"5072686334",node,,Risoopytniy,,45.2187721,38.3119101
n5072789402,"5072789402",node,,Nes',,66.5962066,44.6667753
n5075181901,"5075181901",node,,Noviy Rogachik,,48.6813592,44.0758110
n5076596289,"5076596289",node,,Slavniy,,58.1307609,31.2137141
n5076602656,"5076602656",node,,Sof'yinka,Софьинка,53.7681224,38.6531498
n5076608680,"5076608680",node,,Pyal'ma,Пяльма,62.4498603,35.8537073
n5076636463,"5076636463",node,,Lake Krasnogvardeyskoye Seaplane Base,Озеро Красногвардейское,60.2679981,29.2340461
n5076638969,"5076638969",node,,Sivoritsy-2,Сиворицы-2,59.4876358,29.9874589
n5076780522,"5076780522",node,,Verniy,Верний,45.5677094,41.2408893
n5076801348,"5076801348",node,Местаново,Mestanovo,Местаново,59.6054434,29.2727609
n5077061970,"5077061970",node,Стрельня,Strel'nya,Стрельня,54.5135732,20.6173727
n5077525910,"5077525910",node,Андреевская,Andreyevskaya,Андреевская,45.3427921,38.6990115
n5082152923,"5082152923",node,Тарасово,Tarasovo Airstrip,Тарасово,60.2729212,29.2784755
n5082189653,"5082189653",node,Уляп,Ulyap,Уляп,45.0786697,39.9636609
n5083131781,"5083131781",node,,,,54.9582167,73.3181877
n5085108566,"5085108566",node,,Nekrasovo,Некрасово,57.7876745,40.8423632
n5085131727,"5085131727",node,,Mirskaya,,45.5490902,40.3280814
n5085137491,"5085137491",node,,Stebayevo,Стебаево,52.4281439,39.2875948
n5092150023,"5092150023",node,,Ostashkov,Залесье,57.1209116,33.2060249
n5092153227,"5092153227",node,,Progress,Прогресс,44.8815784,40.2324322
n5092157081,"5092157081",node,Смуглянка,Smuglyanka,Смуглянка,52.7428455,39.3819915
n5092181798,"5092181798",node,Рыздвяный,Ryzdvyaniy,Рыздвяный,45.2765901,41.8237009
n5093815297,"5093815297",node,,,,50.6451703,36.5704380
n5094417628,"5094417628",node,,Serafimovich,,49.5535626,42.7222223
n5102457179,"5102457179",node,,,,51.9722662,85.8431661
n5102457187,"5102457187",node,,,,51.9710225,85.8457230
n5106813345,"5106813345",node,Татарское,Tatarskoye,Татарское,57.5155877,40.9200733
n5106820928,"5106820928",node,Афипский (Свободный),Afipskiy,Афипский (Свободный),44.8547955,38.8223970
n5106827806,"5106827806",node,Венцы (Заря),Vency (Zarya),Венцы (Заря),45.3227017,40.8117115
n5107302061,"5107302061",node,Янино,Yanino,Янино,55.2062286,39.4181176
n5107434585,"5107434585",node,Березанская,Berezanskaya,Березанская,45.7145707,39.4498986
n5107444125,"5107444125",node,Марьянская,Mar'yanskaya,Марьянская,45.1442757,38.7031229
n5108773033,"5108773033",node,Восточный,Vostochny,Восточный,45.4449172,40.2587785
n5108777114,"5108777114",node,Ловлинская,Lovlinskaya,Ловлинская,45.5014325,40.2348219
n5108779730,"5108779730",node,Новопавловск,Novopavlovsk,Новопавловск,44.0429075,43.5469486
n5108793112,"5108793112",node,Сновицы,Snovitsy',Сновицы,56.1813582,40.3303817
n5109566211,"5109566211",node,Уйма,Uyima,Уйма,64.4693696,40.8385921
n5109599559,"5109599559",node,,Pushkinskoye,,45.1937464,40.6334488
n5109631232,"5109631232",node,Совхоз Кубань,Sovkhoz Kuban',Совхоз Кубань,45.3348508,40.4102943
n5110234529,"5110234529",node,Усть-Лабинск,Ust'-Labinsk,Усть-Лабинск,45.2767867,39.6731315
n5110239654,"5110239654",node,Терновская,Ternovskaya,Терновская,45.8879104,40.3728030
n5110242430,"5110242430",node,Заря,Zarya,Заря,52.7519324,41.7305532
n5110242509,"5110242509",node,Поповичская,Popovichskaya,Поповичская,45.5236987,38.6697184
n5110559208,"5110559208",node,Медовое,Medovoye,Медовое,54.5426929,20.3382741
n5110749048,"5110749048",node,Народное Небо,Narodnoye Nevo,Народное Небо,55.4703743,36.1655549
n5110899604,"5110899604",node,Телегино,Elets (Telegino),Телегино,52.6370004,38.4004787
n5110951971,"5110951971",node,Прочноокопская,Prochnookopskaya,Прочноокопская,45.0807045,41.1294585
n5111793451,"5111793451",node,,Gromovo Air Base,Громово,60.7132169,30.1134395
n5113211145,"5113211145",node,,,,56.1801916,92.4896547
n5124089937,"5124089937",node,Напругово,Naprugovo,Напругово,56.3600563,36.8438575
n5124550534,"5124550534",node,Воропоново,Voroponovo,Воропоново,48.6780801,44.3592269
n5124554387,"5124554387",node,Суворовская,Suvorovskaya,Суворовская,45.2923301,39.4470144
n5126158443,"5126158443",node,Балковская,Balkovskaya,Балковская,45.8232795,39.7272743
n5126192825,"5126192825",node,Крупской,Krupskoy,Крупской,45.4836948,38.4457693
n5126195805,"5126195805",node,Новобейсугская,Novoveysugskaya,Новобейсугская,45.4486109,39.8549273
n5126300005,"5126300005",node,Центральный,,Центральный,46.2031173,40.8324415
n5126307763,"5126307763",node,Новомалороссийская,Novomalorossiyskaya,Новомалороссийская,45.6158970,39.8900122
n5126516982,"5126516982",node,Пелагиада,Pelagiada,Пелагиада,45.2143395,41.9796796
n5126548967,"5126548967",node,Якушкино,Yakushkino,Якушкино,55.2091672,33.8761385
n5127891921,"5127891921",node,Николаевка,Nikolayevka (Tambov),Николаевка,52.6481379,40.9889747
n5127895090,"5127895090",node,Рязанская,Ryazanskaya,Рязанская,44.9904323,39.5910403
n5128065742,"5128065742",node,Заборовье,Zaborov'ye,Заборовье,57.2174725,28.3018434
n5128075990,"5128075990",node,,Kletskiy (AHR),Клетский (АХР),49.2998769,43.0418884
n5128158342,"5128158342",node,,Yarenga,Яреньга,64.8843572,37.9094204
n5130175441,"5130175441",node,,Orlenok,Орленок,48.7157824,44.9035425
n5130224319,"5130224319",node,,Lesnaya,Лесная,44.8034766,38.9322524
n5130242098,"5130242098",node,,Ivanovskaya,Ивановская,45.2515172,38.4326326
n5130510122,"5130510122",node,Захарино,Zakharino,Захарино,56.3581308,30.2126314
n5130518342,"5130518342",node,Тенгинский,Tenginskiy,Тенгинский,45.1138129,40.0249075
n5131038368,"5131038368",node,Незлобная,Georgiyevsk (Nezlobnaya),Незлобная,44.0856249,43.4062436
n5131193645,"5131193645",node,,Raduga,Радуга,45.5923354,40.9196245
n5136926271,"5136926271",node,,Berkut,,45.6822916,38.8214498
n5138959431,"5138959431",node,,Slavyansk-na-Kubani,Славянск-на-Кубани,45.2065117,38.0868318
n5138972662,"5138972662",node,,Babkino,Бабкино,48.4632624,44.5535727
n5139899199,"5139899199",node,,Russkaya,Русская,45.1561612,41.8116690
n5139982051,"5139982051",node,,Gavrilov Yam (Agat),Агат,57.3191209,39.8205650
n5140081991,"5140081991",node,,Shevlino,Аэродром Шевлино,56.1015459,36.8005980
n5140094944,"5140094944",node,,Starovo,Старово,56.4457698,37.8424662
n5140097909,"5140097909",node,,Devnitsy (Dora),Дора,57.7338152,38.6650574
n5140739107,"5140739107",node,,Protichka,Протичка,45.3746890,38.1074326
n5140747834,"5140747834",node,,Voronezhskaya,Воронежская,45.2414696,39.5574507
n5145495598,"5145495598",node,,Vetyutnev Airstrip,Ветютнев,49.7550378,43.5343099
n5145569248,"5145569248",node,,Mirniy,Мирный,45.2617867,38.3314184
n5147996719,"5147996719",node,,Edissiya,Эдиссия,43.9986759,44.5629630
n5148005547,"5148005547",node,,Verkhniy Egorlyk,Верхний Егорлык,44.9299443,41.8217909
n5148012643,"5148012643",node,,Gostagaevskaya,Гостагаевская,44.9988620,37.4818103
n5153249635,"5153249635",node,Геймановская,Geymanovskaya,Геймановская,45.2599694,40.1857035
n5153253252,"5153253252",node,,Alexandriyskaya,Александрийская-2,44.2815661,43.3007350
n5153256222,"5153256222",node,Варениковское,Varenikovskoye,Варениковское,44.4319710,44.3609043
n5153257927,"5153257927",node,,Arkhipovskoye,Архиповское,44.5039551,44.2116437
n5153861029,"5153861029",node,Горнозаводское,Gornozavodskoye,Горнозаводское,44.0565828,43.9384483
n5153864199,"5153864199",node,,Urukhskaya,Урухская,44.1366782,43.7028014
n5153881542,"5153881542",node,,Pravokumskoye,Правокумское,44.3906934,43.9935273
n5154663372,"5154663372",node,Пригородное,Prigorodnoye,Пригородное,44.2320246,42.1087163
n5154669726,"5154669726",node,Горькая Балка,Gor'kaya Balka,Горькая Балка,44.2380230,44.0083897
n5154670795,"5154670795",node,,Zelenokumsk,Зеленокумск,44.4823837,43.7581399
n5154678352,"5154678352",node,,Timiryazevo,Тимирязево,56.7175469,43.3906718
n5154719332,"5154719332",node,Залесный,Zalesniy,Залесный,45.7450904,42.2807901
n5155758874,"5155758874",node,,Belorechensk,Белореченск,44.7513705,39.9316822
n5155788054,"5155788054",node,,Zelenokumsk-2,Зеленокумск 2,44.4434274,43.7441186
n5155814079,"5155814079",node,,Otkaznoye,Отказное,44.3123736,43.9368994
n5159555018,"5159555018",node,Малая Сердоба,Malaya Serdoba,Малая Сердоба,52.4453844,44.9610612
n5166919677,"5166919677",node,,Stepnoy,Степной,45.1617810,41.2232477
n5166923146,"5166923146",node,,Nizhnyaya Ternovka,Нижняя Терновка,45.4961081,42.2991087
n5174120537,"5174120537",node,Комсомольский,Komsomol'skiy,Комсомольский,45.2961359,40.6743539
n5174124691,"5174124691",node,Левокумское,Levokumskoye,Левокумское,44.9180304,44.6822686
n5200700749,"5200700749",node,,,,52.2729492,104.3545489
n5200700762,"5200700762",node,,,,52.2734583,104.3579153
n5200700764,"5200700764",node,,,,52.2735201,104.3581293
n5200700769,"5200700769",node,,,,52.2750670,104.3607381
n5200701217,"5200701217",node,,,,52.2662485,104.3746425
n5200701341,"5200701341",node,,,,52.2632181,104.3902391
n5203952522,"5203952522",node,,,,52.2732799,104.3576211
n5203973795,"5203973795",node,,,,52.2730789,104.3569993
n5203974033,"5203974033",node,,,,52.2641273,104.3499945
n5204099976,"5204099976",node,,First-aid post,Медпункт,52.2732026,104.3551742
n5207590905,"5207590905",node,,,,52.2645980,104.3806714
n5210235504,"5210235504",node,,,,52.2648754,104.3784809
n5210313186,"5210313186",node,Кстово-Восточный,Kstovo-Vostochnyi,Кстово-Восточный,56.0938621,44.2245658
n5265330151,"5265330151",node,,,Теньгушево,54.7555957,42.6788021
n5265330152,"5265330152",node,Вознесенское,Voznesenskoye,Вознесенское,54.8945410,42.8169912
n5265330153,"5265330153",node,,Purdoshki,Пурдошки,54.6515632,43.5247318
n5265330154,"5265330154",node,,,Ельники,54.6072289,43.8390550
n5265330155,"5265330155",node,,Novoye Zubarevo,Новое Зубарёво,54.3671985,43.9407889
n5265330156,"5265330156",node,,Izosimovka,Изосимовка,54.1138253,43.7593279
n5265661004,"5265661004",node,,,Вадинск,53.7048061,43.0359268
n5265661007,"5265661007",node,,Maloye Pichaevo,Малое Пичаево,53.5667531,41.7639850
n5270217252,"5270217252",node,,,,47.4911056,39.9372452
n5297590670,"5297590670",node,,Yavas,Явас,54.4332911,42.8472158
n5315394570,"5315394570",node,,,6977-я авиабаза Сокол,57.9142551,56.0388564
n5337423629,"5337423629",node,,"Aerodrome ""Gagarin""",,55.6377177,34.8286498
n5349193098,"5349193098",node,,,,67.6310476,53.1006058
n5370525290,"5370525290",node,,,,63.7439839,159.9228009
n5372482610,"5372482610",node,,,,52.0827020,59.6954918
n5403458272,"5403458272",node,,,,56.8659414,105.7046413
n5432026841,"5432026841",node,,,,50.6442705,36.5705936
n5470985688,"5470985688",node,,Kazachja,ПП Казачья,44.9429908,41.6624775
n5498176628,"5498176628",node,,,,52.9316463,36.0172610
n5502976652,"5502976652",node,,,,55.4154757,37.9019069
n5517093034,"5517093034",node,,,,53.7937532,81.1660952
n5529860108,"5529860108",node,,,,55.4621578,65.4165512
n5549543344,"5549543344",node,,Kumertau (Vorotynovka),Воротыновка,52.8454568,55.8226435
n5625254476,"5625254476",node,,,,55.8951008,38.0601264
n5625254483,"5625254483",node,,,,55.8975532,38.0562336
n5627864441,"5627864441",node,,,,44.9259969,147.6047362
n5628360624,"5628360624",node,Ольховец,Ol'khovets,Ольховец,60.9719011,34.1393113
n5643638025,"5643638025",node,Дмитриевская,Dmitrievskaya,Дмитриевская,45.6401277,40.7570387
n5644607794,"5644607794",node,,,,47.4817707,39.9058053
n5647285059,"5647285059",node,Клементьево,Klement'yevo,Клементьево,54.8624961,39.0384118
n5661599970,"5661599970",node,,,,52.0199307,80.3367604
n5679453691,"5679453691",node,,,,54.9512985,43.3162298
n5732602671,"5732602671",node,,,,55.6065102,37.2864671
n5732602673,"5732602673",node,,,,55.6062965,37.2868296
n5732602678,"5732602678",node,,,,55.6054257,37.2883070
n5732602707,"5732602707",node,,,,55.6057415,37.2877712
n5739538124,"5739538124",node,,,,54.2886963,48.2338760
n5758822347,"5758822347",node,,,,55.6022789,37.2468173
n5783197712,"5783197712",node,,,Гелион,53.3696188,84.0572763
n5783580212,"5783580212",node,,,Барантал,51.4470467,85.9889066
n5783675775,"5783675775",node,,,Карасук (АлтайАвиа),51.5621451,85.9182894
n5783718386,"5783718386",node,,,Джазатор (недействующий),49.6952880,87.4354970
n5809757669,"5809757669",node,,,,56.1065790,92.9368108
n5825049684,"5825049684",node,,,Преображение,42.9215852,133.9043697
n5825121339,"5825121339",node,Зольская,Zol'skaya Airstrip,Зольская,43.9216334,43.3486018
n5851891912,"5851891912",node,,,,44.9986314,37.3362239
n5859934931,"5859934931",node,,,,48.5246757,135.1660082
n5860388332,"5860388332",node,,,,54.5471660,36.3666973
n5860388375,"5860388375",node,,,,54.5468364,36.3667116
n5860416339,"5860416339",node,,,,54.5469054,36.3666259
n5860416347,"5860416347",node,,,,54.5472885,36.3661353
n5864322391,"5864322391",node,,,,55.5943941,37.2395448
n5864389746,"5864389746",node,,,,43.4501929,39.9467048
n5872309096,"5872309096",node,,,,55.0044798,82.6292248
n5872321216,"5872321216",node,,,,55.0058547,82.7003977
n5872370842,"5872370842",node,,,,56.7449923,60.8378882
n5872370843,"5872370843",node,,,,56.7448975,60.8352942
n5872458473,"5872458473",node,,,,44.2091853,43.1133531
n5882299773,"5882299773",node,,,,62.3825527,117.0213804
n5884602566,"5884602566",node,,,,61.1234622,72.6344051
n5887260964,"5887260964",node,,,,57.9164779,56.0098320
n5940484345,"5940484345",node,,,,46.8644743,142.7133340
n5940485116,"5940485116",node,,,,46.8869452,142.7239961
n5940485117,"5940485117",node,,,,46.8866477,142.7239473
n5940485203,"5940485203",node,,,,46.8757855,142.7208278
n5966760863,"5966760863",node,,,,55.8972679,38.0567201
n6069169545,"6069169545",node,,,Аэродром Холмогоры,52.7014429,55.7596012
n6074108239,"6074108239",node,,,,43.4491954,39.9399585
n6082156217,"6082156217",node,,,,66.5945010,66.5831431
n6082156229,"6082156229",node,,,,66.6010400,66.6602238
n6094816409,"6094816409",node,,Taldom,Талдом (Журавли),56.7397979,37.6042247
n6126047750,"6126047750",node,Чудово (Волхов-Мост),Volkhov Most Seaplane Base,Чудово (Волхов-Мост),59.0649876,31.7629683
n6126746224,"6126746224",node,,,,62.5311000,114.0203235
n6126746225,"6126746225",node,,,,62.5316504,114.0223446
n6126746227,"6126746227",node,,,,62.5314933,114.0212964
n6144474206,"6144474206",node,,,,64.7271343,177.7437821
n6163920878,"6163920878",node,,,,67.2110444,56.7713564
n6171537953,"6171537953",node,,,,55.0092735,82.6677211
n6171537954,"6171537954",node,,,,55.0092392,82.6673259
n6171537955,"6171537955",node,,,,55.0092037,82.6669168
n6171540054,"6171540054",node,,,,55.0091578,82.6663880
n6171540055,"6171540055",node,,,,55.0093286,82.6683546
n6180685641,"6180685641",node,,Otradnaya,Отрадная,44.3834441,41.4891911
n6216961353,"6216961353",node,,Vyaz'ma (Zapadny) Airstrip,,55.2031682,34.2560520
n6230894659,"6230894659",node,Минино,Minino Airfield,Минино,56.4868394,36.6238747
n6264070451,"6264070451",node,Сокол,Novotitarovskaya Heliport,Сокол,45.2641595,38.9929413
n6320440224,"6320440224",node,,,,55.5596598,38.1204524
n6340604400,"6340604400",node,,,,55.6067055,37.2604966
n6340604401,"6340604401",node,,,,55.6068934,37.2608775
n6344794087,"6344794087",node,,,,55.0986884,73.0317193
n6356337412,"6356337412",node,,Uver,Уверь,58.5137373,34.6117249
n6357485118,"6357485118",node,,,,53.1663634,158.4275360
n6426620440,"6426620440",node,,,,54.1374963,45.2166863
n6426620442,"6426620442",node,,,,54.1382702,45.2176733
n6466379250,"6466379250",node,,,,48.9453616,40.3009178
n6466379251,"6466379251",node,,,,48.9454524,40.3011107
n6466915160,"6466915160",node,,,,53.3356311,34.2316533
n6476680142,"6476680142",node,,,Тенкели,70.1735555,140.7258869
n6484240442,"6484240442",node,,,,45.0842895,33.5803320
n6484240444,"6484240444",node,,,,45.0859189,33.5763705
n6486911808,"6486911808",node,,,,43.5082271,43.6355454
n6519701161,"6519701161",node,,,,55.4153293,37.8920863
n6522243597,"6522243597",node,,,,55.6042903,37.2542766
n6530504230,"6530504230",node,,,,56.7501725,60.8052217
n6537885779,"6537885779",node,,,,44.2172667,43.0846792
n6537905701,"6537905701",node,,,,44.2174595,43.0836925
n6538149667,"6538149667",node,,,,56.1806122,92.4879933
n6562168086,"6562168086",node,,,,71.6987352,128.8893812
n6562168098,"6562168098",node,,,,71.6947654,128.8888657
n6562168109,"6562168109",node,,,,71.7035222,128.8884459
n6603779085,"6603779085",node,,,,59.6545937,67.4209948
n6621137660,"6621137660",node,,,,65.4800866,72.6917124
n6651671386,"6651671386",node,,,,55.2416230,61.3074978
n6653276451,"6653276451",node,,,скв. 102,67.1680359,55.7007319
n6653303442,"6653303442",node,,,скв. 104,67.0865034,55.6162959
n6654601847,"6654601847",node,,,Аэродром Орёл,47.1843205,142.7465469
n6683866507,"6683866507",node,,,,50.2144402,39.6647405
n6685894640,"6685894640",node,,,,63.1786757,75.2775849
n6709526490,"6709526490",node,,,,54.2457621,48.1988748
n6711316807,"6711316807",node,,,,67.4823316,153.7361076
n6720542451,"6720542451",node,,,Аэропорт Тигиль,57.7767232,158.7138409
n6738965099,"6738965099",node,,,,51.8125412,39.2252784
n6754029857,"6754029857",node,,,,51.7186266,46.1700721
n6791579494,"6791579494",node,,,,53.4446794,41.7441065
n6842503624,"6842503624",node,,,,43.5067658,43.6376667
n6854832737,"6854832737",node,,,,51.3448935,110.5338347
n6887912249,"6887912249",node,,Dalnegorsk,,44.5581693,135.4908037
n6910774692,"6910774692",node,,,,53.3350660,34.2353774
n6943192972,"6943192972",node,,,,55.9819690,37.4157325
n6943192973,"6943192973",node,,,,55.9816857,37.4138333
n6953410542,"6953410542",node,,,Мариинск,56.2536041,87.7552539
n6953423106,"6953423106",node,,,Чумай,55.7540894,87.7920431
n6957560123,"6957560123",node,,,,55.6086938,37.2827298
n6957560129,"6957560129",node,,,,55.6085715,37.2829356
n6957560165,"6957560165",node,,,,55.6090727,37.2820657
n6969240862,"6969240862",node,,,Яя,56.2190186,86.4236498
n6974342081,"6974342081",node,,,,66.7859328,123.3684864
n7001607162,"7001607162",node,,,,51.6765442,94.4057650
n7001607172,"7001607172",node,,,,51.6760803,94.4031615
n7003224142,"7003224142",node,,,Каратузское,53.5641011,92.8153914
n7003242634,"7003242634",node,,,Верхнеусинское,52.2328560,92.9989082
n7003259151,"7003259151",node,,,Вознесенка,56.0304902,93.2470795
n7012712383,"7012712383",node,,,,66.4520068,143.2516304
n7012712384,"7012712384",node,,,,66.4505162,143.2586208
n7040908892,"7040908892",node,,,,64.7418217,177.7522800
n7057022460,"7057022460",node,Лумбовка,Lumbovka,,67.7351435,40.5319409
n7076362629,"7076362629",node,,,,55.5951360,37.2967500
n7138679841,"7138679841",node,,,,55.9831949,37.4239464
n7190033567,"7190033567",node,,,,67.6340094,53.0825322
n7206537208,"7206537208",node,,Maestro UL,,45.8348220,40.4327344
n7208919167,"7208919167",node,Хмельницкая,Khmel'nitskaya Airstrip,,45.5382254,38.5560024
n7223264928,"7223264928",node,,,,43.4363005,39.9321620
n7255124474,"7255124474",node,Бекетовка-2,Beketovka-2,Бекетовка-2,48.5631769,44.3628733
n7276400490,"7276400490",node,,Ovsorok Airstrip,Овсорок,53.5614760,34.7259312
n7293211487,"7293211487",node,,,,59.7961487,30.2878888
n7339697406,"7339697406",node,,,,61.6641756,50.8623326
n7391815532,"7391815532",node,,,,43.4361445,39.9272261
n7393092773,"7393092773",node,,,,63.8531312,123.8436255
n7393092775,"7393092775",node,,,Мукучу,63.8528929,123.8476378
n7409336094,"7409336094",node,,,,59.6761515,30.3200774
n7417641720,"7417641720",node,,,Мастах,63.7207730,124.1887665
n7418266847,"7418266847",node,,,,57.9767377,31.3803787
n7437549587,"7437549587",node,,,,53.6318601,49.6763772
n7474910128,"7474910128",node,,,,53.1500961,140.6630059
n7474910129,"7474910129",node,,,,53.1500471,140.6641100
n7500731381,"7500731381",node,Сандово,Sandovo,,58.4588607,36.3802502
n7500739727,"7500739727",node,Сарозеро,Sarozero (Kipriyanovskaya),Сарозеро,60.4635451,34.7442518
n7553007243,"7553007243",node,,,,63.5840017,53.8135623
n7555838806,"7555838806",node,Геленджик Бухта,Gelendzhik Seaplane Base,Геленджик Бухта,44.5767783,38.0374869
n7587842279,"7587842279",node,,,,46.3693348,44.3301133
n7591081659,"7591081659",node,,,,51.0784317,58.6337591
n7591784349,"7591784349",node,,,,57.5543632,40.1549042
n7594064164,"7594064164",node,,,,57.5537965,40.1480320
n7594064178,"7594064178",node,,,,57.5537653,40.1479856
n7608700577,"7608700577",node,,,,59.2815664,38.0221862
n7608700578,"7608700578",node,,,,59.2804709,38.0180939
n7608700579,"7608700579",node,,,,59.2813488,38.0164008
n7608788901,"7608788901",node,,,,59.2813315,38.0205479
n7610956943,"7610956943",node,,,,59.2823835,38.0233562
n7612160778,"7612160778",node,,,,54.1425570,45.2309001
n7612174836,"7612174836",node,,,,54.1385360,45.2180052
n7614243452,"7614243452",node,,,,54.1411156,45.2315434
n7624938037,"7624938037",node,,,,53.3611210,83.5492377
n7625065506,"7625065506",node,,,,53.3565241,83.5142953
n7625690355,"7625690355",node,,,,52.3588441,104.2027146
n7625690359,"7625690359",node,,,,52.3636664,104.2018441
n7625690360,"7625690360",node,,,,52.3593090,104.2014905
n7625690361,"7625690361",node,,,,52.3591958,104.2013005
n7625740941,"7625740941",node,,,,52.3612770,104.2069011
n7628227586,"7628227586",node,,,,51.8130374,39.2245492
n7628763726,"7628763726",node,,,,51.8097001,39.2203276
n7628763773,"7628763773",node,,,,51.8129648,39.2229089
n7631361112,"7631361112",node,,,,50.6436422,36.5712703
n7631446721,"7631446721",node,,,,64.7170945,177.7393005
n7631628077,"7631628077",node,,,,50.6359308,36.6093552
n7631636587,"7631636587",node,,,,50.6401619,36.5927203
n7632039445,"7632039445",node,,,,50.6461059,36.5704541
n7632062537,"7632062537",node,,,,64.7141324,177.7346567
n7633946179,"7633946179",node,,,,53.3981546,58.7523361
n7634186814,"7634186814",node,,,,58.0636846,68.3301447
n7634244339,"7634244339",node,,,,53.3915693,58.7616699
n7634244344,"7634244344",node,,,,53.3900968,58.7621910
n7634360324,"7634360324",node,,,,51.8013488,107.4550532
n7635123368,"7635123368",node,,,,51.8034688,107.4489709
n7635124893,"7635124893",node,,,,51.8051148,107.4447618
n7635124905,"7635124905",node,,,,51.8020176,107.4458486
n7642936538,"7642936538",node,,,,50.4227131,127.4053252
n7642941652,"7642941652",node,,,,50.4229841,127.4068628
n7642958354,"7642958354",node,,,,50.4115473,127.4189943
n7642958507,"7642958507",node,,,,50.4323956,127.4017889
n7648387141,"7648387141",node,,,,54.5359956,36.3871751
n7649309024,"7649309024",node,,,,59.9185942,150.7270823
n7651093009,"7651093009",node,,,,59.9152989,150.7497114
n7651150402,"7651150402",node,,,,59.9194259,150.7229578
n7651150430,"7651150430",node,,,,59.9102259,150.7643455
n7651329966,"7651329966",node,,,,55.2839410,86.1320563
n7651344835,"7651344835",node,,,,55.2807022,86.1162425
n7651351540,"7651351540",node,,,,55.6067887,49.3031688
n7651624098,"7651624098",node,,,,55.2811446,86.1118459
n7652213861,"7652213861",node,,,,55.2820583,86.1182613
n7652386894,"7652386894",node,,,,55.2842971,86.1402750
n7652546105,"7652546105",node,,,,59.9084416,150.7547247
n7655228749,"7655228749",node,,,,55.6137005,49.2848307
n7655228761,"7655228761",node,,,,55.6068917,49.3028873
n7655698031,"7655698031",node,,,,55.6211025,49.2426292
n7663174648,"7663174648",node,,,,46.2894265,48.0028177
n7663194505,"7663194505",node,,,,46.2887540,47.9958036
n7663200791,"7663200791",node,,,,55.6156932,49.2730949
n7668509923,"7668509923",node,,,,57.9193422,56.0186544
n7669492383,"7669492383",node,,,,47.4962773,39.9467271
n7669514386,"7669514386",node,,,,47.4932378,39.9385770
n7669514411,"7669514411",node,,,,47.4871725,39.9251551
n7669652859,"7669652859",node,,,,47.4861906,39.9242911
n7669732593,"7669732593",node,,,,57.9215685,56.0202602
n7672589613,"7672589613",node,,,,57.9211761,56.0144937
n7672589616,"7672589616",node,,,,57.9196921,56.0174604
n7672713630,"7672713630",node,,,,57.9142473,56.0100916
n7672713631,"7672713631",node,,,,57.9001367,55.9934156
n7672966745,"7672966745",node,,,,42.8177967,47.6631581
n7672966750,"7672966750",node,,,,42.8150649,47.6641576
n7676204824,"7676204824",node,,,,57.9176897,56.0102020
n7676407744,"7676407744",node,,,,68.7775371,32.7710036
n7678975334,"7678975334",node,,,,56.1885574,92.4749523
n7679867742,"7679867742",node,,,,55.0013647,82.6888149
n7686411740,"7686411740",node,,,,52.0199769,113.3097937
n7686556001,"7686556001",node,,,,55.0101752,82.6999264
n7686556049,"7686556049",node,,,,55.0006782,82.6912835
n7686666934,"7686666934",node,,,,55.0014720,82.6755175
n7686666937,"7686666937",node,,,,55.0088897,82.7009374
n7686720501,"7686720501",node,,,,52.0205803,113.3054392
n7687243496,"7687243496",node,,,,55.0176248,82.6512396
n7687343806,"7687343806",node,,,,52.0203955,113.3009685
n7690455257,"7690455257",node,,,,44.9933239,37.3336753
n7690916509,"7690916509",node,,,,45.0081375,37.3467843
n7690940944,"7690940944",node,,,,53.7529935,91.3991636
n7691146860,"7691146860",node,,,,53.7450973,91.3985410
n7691146882,"7691146882",node,,,,53.7473620,91.4035681
n7691170087,"7691170087",node,,,,53.7480601,91.4046064
n7691373601,"7691373601",node,,,,44.9960027,37.3354422
n7691373602,"7691373602",node,,,,44.9943743,37.3343754
n7691373603,"7691373603",node,,,,44.9937912,37.3339781
n7694453787,"7694453787",node,,,,64.5959075,40.6955997
n7694576552,"7694576552",node,,,,48.5457737,135.2145162
n7694837843,"7694837843",node,,,,64.5976099,40.7673316
n7697949543,"7697949543",node,,,,48.5127238,135.1649937
n7697949577,"7697949577",node,,,,48.5362276,135.1832101
n7697949616,"7697949616",node,,,,48.5348420,135.1796551
n7698209798,"7698209798",node,,,,48.5235384,135.1674075
n7698209803,"7698209803",node,,,,48.5290409,135.1714554
n7698213105,"7698213105",node,,,,48.5313208,135.1744652
n7701667565,"7701667565",node,,,,56.2103800,43.7970073
n7701681988,"7701681988",node,,,,56.2164153,43.7996022
n7701682009,"7701682009",node,,,,56.2141314,43.8009848
n7709676807,"7709676807",node,,,,55.5223143,37.5147915
n7709736757,"7709736757",node,,,,54.5660611,55.8879668
n7710281803,"7710281803",node,,,,57.9208626,56.0198788
n7712794703,"7712794703",node,,,,43.3769703,132.1446758
n7715409961,"7715409961",node,,,,43.4069289,132.1773183
n7715411669,"7715411669",node,,,,45.0349160,39.1359099
n7715464450,"7715464450",node,,,,45.0406848,39.1398415
n7715628479,"7715628479",node,,,,43.3970660,132.1719349
n7716177009,"7716177009",node,,,,43.4060940,132.1601190
n7719091557,"7719091557",node,,,,56.7405802,60.7767010
n7719189790,"7719189790",node,,,,56.7502479,60.7980356
n7719189877,"7719189877",node,,,,56.7516666,60.7872140
n7719586995,"7719586995",node,,,,56.7435699,60.7654708
n7723544563,"7723544563",node,,,,62.1056423,129.7837014
n7723859240,"7723859240",node,,,,62.0897337,129.7497743
n7724063513,"7724063513",node,,,,62.0843074,129.7465401
n7724063600,"7724063600",node,,,,62.0730754,129.7430259
n7724063602,"7724063602",node,,,,62.0820931,129.7461741
n7724063666,"7724063666",node,,,,62.0910232,129.7494870
n7724063669,"7724063669",node,,,,62.0916130,129.7536265
n7729838407,"7729838407",node,,,,62.0900406,129.7887371
n7729838426,"7729838426",node,,,,62.0902133,129.7497502
n7730444106,"7730444106",node,,,,48.7936535,44.3582779
n7730946962,"7730946962",node,,,,43.4566924,39.9631213
n7738872594,"7738872594",node,,,,55.6037775,37.2517406
n7740296548,"7740296548",node,,,,52.2617595,104.3949853
n7742961274,"7742961274",node,,,,52.2730128,104.3567564
n7743178610,"7743178610",node,,,,52.2629719,104.3634063
n7743627709,"7743627709",node,,,,52.2726245,104.3523954
n7743627728,"7743627728",node,,,,52.2647547,104.3795853
n7743627741,"7743627741",node,,,,52.2652463,104.3734722
n7743731871,"7743731871",node,,,,52.2632633,104.3646953
n7755383842,"7755383842",node,,,,59.7964698,30.2669558
n7755443747,"7755443747",node,,,,55.4272024,37.8764847
n7759966927,"7759966927",node,,,,59.8083760,30.3007621
n7761236527,"7761236527",node,,,,55.9746643,37.3821502
n7768824981,"7768824981",node,,,,56.2192344,43.7901390
n7771919950,"7771919950",node,,,,57.1759550,65.3401862
n7780217480,"7780217480",node,,,,55.5584343,38.1130303
n7796297145,"7796297145",node,,Paradrom Murom,Парадром Муром,55.5965742,41.9901010
n7838553488,"7838553488",node,,,,47.1914459,38.8713883
n7899931572,"7899931572",node,,,,46.2875165,48.0001427
n7899931573,"7899931573",node,,,,46.2875188,48.0002938
n7949722430,"7949722430",node,,Turgenovo,Тургенево,53.3664832,37.2883575
n7984038646,"7984038646",node,,,,51.7182038,46.1691965
n7984177871,"7984177871",node,,,,51.7182391,46.1671109
n7984733020,"7984733020",node,,,,51.7176740,46.1598502
n7984813834,"7984813834",node,,,,51.7181821,46.1708218
n7988041204,"7988041204",node,,,,52.7162773,39.5283285
n7991630806,"7991630806",node,,,,66.4020014,112.0354049
n7991630888,"7991630888",node,,,,66.3997832,112.0398439
n7991630896,"7991630896",node,,,,66.3999892,112.0384006
n7991667336,"7991667336",node,,,,66.3900613,112.0315792
n7991761101,"7991761101",node,,,,66.3837235,112.0441223
n7991761105,"7991761105",node,,,,66.4175288,112.0191318
n7991761106,"7991761106",node,,,,66.3990555,112.0418653
n7991761107,"7991761107",node,,,,66.3991978,112.0405648
n7991761108,"7991761108",node,,,,66.3962002,112.0406278
n7991761109,"7991761109",node,,,,66.4020397,112.0362437
n7994556402,"7994556402",node,,,,58.6022979,125.3979629
n7994556403,"7994556403",node,,,,58.6052581,125.4008889
n7994556448,"7994556448",node,,,,58.5961930,125.3979298
n7994556462,"7994556462",node,,,,58.6082282,125.4113276
n7999468050,"7999468050",node,,,,59.6249357,150.9191854
n7999619452,"7999619452",node,,,,43.3828680,45.7020975
n7999834321,"7999834321",node,,,,59.2852904,39.9356362
n8002504699,"8002504699",node,,,,43.3858021,45.6972268
n8002704683,"8002704683",node,,,,43.3846843,45.6973550
n8003618820,"8003618820",node,,,,66.0023343,57.3777627
n8003618824,"8003618824",node,,,,66.0023332,57.3768268
n8005414003,"8005414003",node,,,,53.1579446,158.4523200
n8005492460,"8005492460",node,,,,56.8655980,105.7059856
n8005496824,"8005496824",node,,,,56.8572696,105.7152134
n8009037636,"8009037636",node,,,,56.8330080,53.4523876
n8009239416,"8009239416",node,,,,50.6442749,36.5779694
n8009462908,"8009462908",node,,,,54.6339537,52.7826467
n8009489267,"8009489267",node,,,,56.8287450,53.4410928
n8010267638,"8010267638",node,,,,63.1898523,75.2800637
n8010678931,"8010678931",node,,,,53.7260652,33.3495650
n8012023590,"8012023590",node,,,,63.1677758,75.2543588
n8012069548,"8012069548",node,,,,60.7192827,77.6471423
n8012069552,"8012069552",node,,,,60.7113165,77.6639751
n8012069553,"8012069553",node,,,,60.7178544,77.6490228
n8012069554,"8012069554",node,,,,60.7159183,77.6492828
n8012146390,"8012146390",node,,,,63.1971675,75.2849249
n8012146413,"8012146413",node,,,,63.1982231,75.2850249
n8015499211,"8015499211",node,,,,69.7806038,170.6064373
n8015499217,"8015499217",node,,,,69.7735791,170.6082585
n8015499221,"8015499221",node,,,,69.7750647,170.6070123
n8015530361,"8015530361",node,,,,70.6230591,147.9024231
n8015580844,"8015580844",node,,,,69.7851238,170.6057183
n8015613043,"8015613043",node,,,,70.6238770,147.9088792
n8015613079,"8015613079",node,,,,70.6232618,147.9049879
n8015715843,"8015715843",node,,,,71.6936383,128.8881388
n8015759893,"8015759893",node,,,,56.6997512,47.9067810
n8015779918,"8015779918",node,,,,71.7104169,128.9119007
n8015782395,"8015782395",node,,,,71.7068583,128.8892701
n8015997555,"8015997555",node,,,,56.6976634,47.9083058
n8016007498,"8016007498",node,,,,56.3855549,85.2052134
n8016021904,"8016021904",node,,,,45.3685479,38.2762936
n8020650738,"8020650738",node,,,,71.7105791,128.9116392
n8021146347,"8021146347",node,,,,71.6871609,128.8869273
n8021734367,"8021734367",node,,,,52.8036814,41.4916291
n8021734376,"8021734376",node,,,,52.8032075,41.4911980
n8021782325,"8021782325",node,,,,52.8015968,41.4935038
n8024202431,"8024202431",node,,,,67.4904097,64.0036774
n8024225934,"8024225934",node,,,,63.5680775,53.7988311
n8024225936,"8024225936",node,,,,63.5601653,53.7955427
n8024497080,"8024497080",node,,,,67.4914608,64.0013775
n8024515329,"8024515329",node,,,,67.4842782,64.0017410
n8024516534,"8024516534",node,,,,67.4642926,33.5770462
n8024645670,"8024645670",node,,,,66.5872910,66.6054940
n8024759864,"8024759864",node,,,,57.7973742,28.3907187
n8024987611,"8024987611",node,,,,67.6393691,53.0798973
n8025120991,"8025120991",node,,,,66.5936989,66.5931190
n8025121051,"8025121051",node,,,,66.5906205,66.5865232
n8027171441,"8027171441",node,,,,54.8971844,20.6068084
n8027280454,"8027280454",node,,,,60.9480751,76.4734128
n8027280476,"8027280476",node,,,,60.9504793,76.4764179
n8029858068,"8029858068",node,,,,60.9516889,76.4960097
n8030873154,"8030873154",node,,,,66.0650245,76.5416420
n8031758729,"8031758729",node,,,,66.0765368,76.4776475
n8031781943,"8031781943",node,,,,45.0413873,39.1586467
n8034833696,"8034833696",node,,,,66.0656690,76.5733954
n8034845377,"8034845377",node,,,,53.8138669,86.8822219
n8034845378,"8034845378",node,,,,53.8050963,86.8630532
n8034847591,"8034847591",node,,,,55.2917262,61.5273187
n8034900170,"8034900170",node,,,,51.6791816,94.3954700
n8035015141,"8035015141",node,,,,67.4665312,153.7172890
n8035266015,"8035266015",node,,,,65.4818762,72.6905562
n8035871470,"8035871470",node,,,,44.2172220,43.0889008
n8046729625,"8046729625",node,,,,64.8900497,45.7362597
n8046848245,"8046848245",node,,,,66.0743853,76.5442951
n8046942274,"8046942274",node,,,,64.8924321,45.7197713
n8049432609,"8049432609",node,,,,64.8933892,45.7402119
n8049652092,"8049652092",node,,,,61.6641741,50.8518013
n8049976230,"8049976230",node,,,,61.6647604,50.8585537
n8049976234,"8049976234",node,,,,61.6325732,50.8327363
n8058607556,"8058607556",node,,,,56.8322523,53.4512839
n8058615704,"8058615704",node,,,,56.8301586,53.4473688
n8090521351,"8090521351",node,,Vadimovka Airstrip,Вадимовка,54.8908920,20.2154876
n8104016878,"8104016878",node,,,,66.5940253,66.5817884
n8109563121,"8109563121",node,,,,63.9582569,127.4188163
n8109721196,"8109721196",node,,,Авиапорт САНГАР,63.9573622,127.4222848
n8141257076,"8141257076",node,,,,55.2093874,36.6312905
n8151626659,"8151626659",node,,,,62.1156958,129.5615047
n8154263871,"8154263871",node,,,,53.1707756,158.4237199
n8158034676,"8158034676",node,,,,51.7492121,36.2830715
n8289292896,"8289292896",node,,,,54.6517789,39.5923847
n8290062270,"8290062270",node,,,,59.2830607,39.9312953
n8290062292,"8290062292",node,,,,59.2845308,39.9360511
n8291260507,"8291260507",node,,,,54.6552276,39.5893561
n8293952597,"8293952597",node,,,,57.7865464,28.4089554
n8293952660,"8293952660",node,,,,57.7974052,28.3869282
n8293952719,"8293952719",node,,,,57.7896045,28.3730628
n8298574445,"8298574445",node,,,Илирней,67.2548860,167.9516994
n8299176326,"8299176326",node,,,,59.8164413,30.2714313
n8567930076,"8567930076",node,,,,62.1832347,117.6419052
n8567930081,"8567930081",node,,,,62.1837418,117.6414405
n8568970552,"8568970552",node,,Rudnya,,54.9526372,31.0335752
n8572573882,"8572573882",node,,Demidov,,55.2741124,31.5362772
n8575002282,"8575002282",node,,Rilyevo Airstrip,,53.8571406,36.8688827
n8575042683,"8575042683",node,,Bereznik,,62.8239257,42.7967236
n8582578764,"8582578764",node,,Temirgoevskaya,,45.1545873,40.2958856
n8585789018,"8585789018",node,,Shablykino,,52.8581901,35.1692822
n8589181545,"8589181545",node,,Dorogobuzh,,54.9032469,33.2662712
n8589206135,"8589206135",node,,Zubarevka,,53.7968551,37.6048609
n8592094892,"8592094892",node,,Lev Tolstoy,,53.2273842,39.4347995
n8592104513,"8592104513",node,,Peremilovo,,56.8909273,41.4187362
n8594320867,"8594320867",node,,Verkhov'ye,,52.8107027,37.2065196
n8594333722,"8594333722",node,,Shchelkanovo,Щелканово,54.5882319,35.4362478
n8607543513,"8607543513",node,,Bol'shiye Kalmyki,,54.0336555,37.8335240
n8610359084,"8610359084",node,,Rovenka,,45.4753533,34.9722888
n8612038532,"8612038532",node,,Slobodskoye,,56.0045447,44.3658941
n8626122505,"8626122505",node,,,,55.6088130,49.2970751
n8687947432,"8687947432",node,,,Себян-Кюёль,65.2916852,129.9995416
n8697050850,"8697050850",node,,,,51.6842221,94.4082566
n8699212654,"8699212654",node,,Krasniy Oktyabr,,45.2603030,37.6614768
n8699221196,"8699221196",node,,Meshchyevsk,,54.3148478,35.3044020
n8701845370,"8701845370",node,,Starinki,,54.5425368,32.3657571
n8701862250,"8701862250",node,,Kireevsk,,53.9101159,38.0006655
n8701907924,"8701907924",node,,Dubrovka,,53.4204786,38.1844909
n8726034489,"8726034489",node,,Dmitrovsky Pogost,,55.3047583,39.8289152
n8732975793,"8732975793",node,,Belikov,,45.5313940,37.9483552
n8732997778,"8732997778",node,,Belyanikha,,55.6606141,44.4658962
n8739721676,"8739721676",node,,Petrovskaya,,45.4873035,37.8817470
n8740293808,"8740293808",node,,,,47.4881668,39.9296896
n8808122823,"8808122823",node,,Kalikino,,52.9800031,39.7310718
n8841433723,"8841433723",node,,Pesochnya,,54.1276572,34.1947659
n8866043871,"8866043871",node,,Kologriv,,58.8397460,44.3261715
n8867992328,"8867992328",node,,Znamenskiy,,55.1952098,44.0536517
n8887723790,"8887723790",node,,Karagichevskiy,,50.1475431,42.8963414
n8904331992,"8904331992",node,,,,59.0838590,159.8750982
n8932296193,"8932296193",node,,Pereslegino Airstrip,,56.3889433,30.4195562
n8933314119,"8933314119",node,,,,54.5663677,55.8836595
n8933782049,"8933782049",node,,Kurkino Airstrip,,53.4188977,38.6301743
n8934866934,"8934866934",node,,,,55.2422845,61.2999814
n8936290701,"8936290701",node,,Kanelovskaya Airstrip,,46.5603551,39.1793785
n8936291254,"8936291254",node,,Kanevskaya Airstrip,,46.0763763,38.8715795
n8938025548,"8938025548",node,,Zubovo Airstrip,,60.3204794,37.0211860
n8938106835,"8938106835",node,,Novokemskii Airstrip,Новокемский,60.3381487,37.2493346
n8955857720,"8955857720",node,,,,57.8084014,41.0117815
n8956885967,"8956885967",node,,Votchitsevo Airstrip,,57.2984004,38.5878901
n8956936430,"8956936430",node,,Belev,,53.8009134,36.2037401
n8959105262,"8959105262",node,,Gorki Agrostrip,Горки,57.9052012,29.3919066
n8959639546,"8959639546",node,,,,66.4509246,143.2539608
n8962990501,"8962990501",node,,,,63.2970652,118.3621421
n8971379014,"8971379014",node,,Kashin Airstrip,,57.3343374,37.5568036
n8972207107,"8972207107",node,,Petrovskiye Vyselki,,53.0989847,38.8349482
n8972210579,"8972210579",node,,Kiyevka,,46.1040635,42.9270359
n8976077125,"8976077125",node,,,,63.4571369,120.2776568
n8976088349,"8976088349",node,,Pyatiletka,,52.2029059,38.2997855
n8976305776,"8976305776",node,,,,52.3765298,140.4453408
n8979716199,"8979716199",node,,,,43.9589958,145.6813959
n8979716201,"8979716201",node,,,,43.9501471,145.6817083
n8979718852,"8979718852",node,,,,43.9597089,145.6813666
n8980815127,"8980815127",node,,Bicheviy,,46.2267325,39.5997491
n8981919665,"8981919665",node,,Osmino,,59.0196547,29.1002358
n8982433392,"8982433392",node,,Tbilisskaya,,45.4201711,40.1351816
n8983611242,"8983611242",node,,Kikvidze Airstrip,,50.7291141,43.0363621
n8985955598,"8985955598",node,,Slabodka,,45.6568675,37.9089554
n8985971062,"8985971062",node,,Porech'ye,,57.1098468,37.9243122
n8985977037,"8985977037",node,,Poddorye,,57.4586806,31.1222039
n8989360083,"8989360083",node,,Voloshovo,,58.7386775,29.3261824
n8989559732,"8989559732",node,,Kletsko-Pochtovskiy,,49.6067501,43.0970603
n8989625631,"8989625631",node,,Panino,,52.8136992,39.6987824
n8989800017,"8989800017",node,,Molokovo Airstrip,,58.1797552,36.7503666
n8992024399,"8992024399",node,,Baygora,,52.3968447,40.0890403
n8994756179,"8994756179",node,,,,61.3306317,63.6022782
n8995425853,"8995425853",node,,,,59.8660565,111.0365116
n8995425855,"8995425855",node,,,,59.8674595,111.0387788
n8995425885,"8995425885",node,,,,59.8597802,111.0453415
n8995427603,"8995427603",node,,,,59.8689452,111.0359792
n8995427699,"8995427699",node,,,,59.8665250,111.0385850
n8996933237,"8996933237",node,,Chirikovo Airstrip,,52.6176185,39.2347755
n8998294448,"8998294448",node,,Znamenskoye,,53.2692172,35.6606730
n9000468309,"9000468309",node,,,,44.2668490,135.0347599
n9000830086,"9000830086",node,,,,49.1899070,142.0764081
n9000830105,"9000830105",node,,,,49.1905697,142.0757143
n9001009873,"9001009873",node,,,,43.3180280,45.0154012
n9002873878,"9002873878",node,,,,54.2772622,48.2461931
n9003057477,"9003057477",node,,Zaboysky,,45.5844997,38.0789468
n9003302475,"9003302475",node,,,,63.6994199,66.6986039
n9003302481,"9003302481",node,,,,63.6948966,66.6921025
n9003655602,"9003655602",node,,,,62.7869890,136.8495266
n9004247455,"9004247455",node,,Chaplygin Airstrip,,53.2683540,39.9571890
n9004262591,"9004262591",node,,,,65.4331692,52.1957240
n9005961599,"9005961599",node,,Zhilino,Жилино,54.9189595,21.9098495
n9013729080,"9013729080",node,,,,67.4428071,86.6175896
n9013903615,"9013903615",node,,,,67.4425354,86.6167282
n9013962675,"9013962675",node,,,,43.3128202,45.0254964
n9015909559,"9015909559",node,,,,63.5684058,53.8173759
n9016146931,"9016146931",node,,Khariusniy (Berezovka),,67.3780906,34.2124492
n9016192095,"9016192095",node,,Lyubytino Airstrip,Любытино,58.8025867,33.3730902
n9017119434,"9017119434",node,,Kistutovo,,57.7966199,35.5928091
n9020575803,"9020575803",node,,Podgorny,,53.5050402,37.0520350
n9020778623,"9020778623",node,,Aushed Airstrip,,45.0552857,38.3218385
n9022038816,"9022038816",node,,Yaroslavskaya Airstrip,,44.5854811,40.4452403
n9023251735,"9023251735",node,,,Бурцево (Доскино),56.1514826,43.7002263
n9024259604,"9024259604",node,,Shovskoye Airstrip,,53.0335361,39.3981066
n9024265836,"9024265836",node,,Krasnaya Niva Airstrip,,45.7471021,39.0863201
n9024265964,"9024265964",node,,Otvazhniy Airstrip,,45.8080965,39.8219678
n9024720598,"9024720598",node,,Krasnaya Polyana,,52.1138395,38.6447245
n9025844973,"9025844973",node,,Grivenskaya Airstrip,,45.6517650,38.2209533
n9027648371,"9027648371",node,,Yuzhniy,,45.3814911,39.8494122
n9027663570,"9027663570",node,,Kalininskaya,,45.4713239,38.6146541
n9027670529,"9027670529",node,,Novodzhereliyevskaya,,45.8221646,38.7227017
n9049757369,"9049757369",node,,Karamyshevo,,52.3695555,39.5247994
n9052299689,"9052299689",node,,,,60.7836916,46.2613735
n9053047159,"9053047159",node,,,,64.3904045,-173.2343703
n9069218176,"9069218176",node,,,,57.9168425,56.0107785
n9069218178,"9069218178",node,,,,57.9163989,56.0096789
n9069232559,"9069232559",node,,,,57.9164630,56.0098033
n9100221192,"9100221192",node,,Nudol,,56.0966244,36.5538967
n9103155145,"9103155145",node,,Mikheyevo,Михеево,54.9022233,35.8820587
n9135640020,"9135640020",node,,,,55.2820763,86.1147176
n9143067421,"9143067421",node,,,,53.2135249,34.1830095
n9170044302,"9170044302",node,,,Аэропорт Таштагол,52.7654953,87.8253326
n9179818928,"9179818928",node,,,,53.3614846,83.5494568
n9179818929,"9179818929",node,,,,53.3614137,83.5491819
n9186743810,"9186743810",node,Иваненковский партизанский аэродром,Partizanskii Airfield,Иваненковский партизанский аэродром,44.9015288,34.3466229
n9435477029,"9435477029",node,,,,55.8349833,44.4367897
n9464440472,"9464440472",node,,,,55.9741924,37.3814501
n9518124655,"9518124655",node,,,Yakutori Naval Airfield (historical),45.3057292,148.3923279
n9542911628,"9542911628",node,,,,63.9271811,65.0471116
n9585932347,"9585932347",node,Аэродром Новокаякент,Novokayakent Airport,Аэродром Новокаякент,42.3379837,48.0222521
n9670078800,"9670078800",node,,,,48.2947585,46.2370160
n9670078903,"9670078903",node,,,,48.3010965,46.1759166
n9670078969,"9670078969",node,,,,48.3231685,46.2087757
n9701288977,"9701288977",node,,,,56.0825754,47.3197000
n9730745515,"9730745515",node,,,,46.6968437,38.2504402
n9743416813,"9743416813",node,,,,51.7477299,36.2920636
n9758990283,"9758990283",node,,Chaglava,Чаглава,56.1408210,44.0010416
n9811855680,"9811855680",node,,,,62.5315954,114.0213651
n9942117744,"9942117744",node,,,,60.1171804,64.8232899
n9942117745,"9942117745",node,,,,60.1174149,64.8235051
n9969093924,"9969093924",node,Аэропорт Киран,,Аэропорт Киран,55.0228085,135.4222248
n9969687302,"9969687302",node,,,,56.3588442,114.9244549
n9969687314,"9969687314",node,,,,56.3589375,114.9242606
n10128289292,"10128289292",node,,,улица Осипова,51.5651166,46.0326853
n10154678156,"10154678156",node,,,,58.0638547,68.3433482
n10284594972,"10284594972",node,,,Ваеги,64.1676707,171.0581758
n10286066927,"10286066927",node,,,,55.6043746,36.6231000
n10300150609,"10300150609",node,,,скв. 103,67.2495820,55.7099640
n10621448962,"10621448962",node,,,,51.7492863,36.2824323
n10680589725,"10680589725",node,,,,55.0084293,82.6681202
n10680589726,"10680589726",node,,,,55.0083378,82.6671817
n10680589727,"10680589727",node,,,,55.0085245,82.6690962
n10682214588,"10682214588",node,,,,60.0926830,30.1835350
n10702976265,"10702976265",node,,,,52.9374961,35.9925995
n10779309469,"10779309469",node,,Gurban-3,Гурбан-3,56.1739482,37.5598840
n10794927205,"10794927205",node,,Byvalino,Бывалино,55.7282417,38.7461322
